# FLASER num_readings [range_readings] x y theta odom_x odom_y odom_theta
FLASER 360 1.67 1.67 1.63 1.63 1.63 1.64 1.69 1.75 1.75 6.94 6.96 6.97 6.97 6.86 6.87 7.30 6.91 6.85 6.83 6.85 6.91 7.41 7.42 7.44 7.45 81.91 4.28 4.14 4.11 4.02 3.85 3.85 3.80 3.77 3.79 3.78 3.83 3.85 3.84 3.80 3.84 3.96 4.59 4.61 4.62 4.64 4.67 4.68 4.70 4.73 4.74 4.10 3.74 3.70 3.65 3.65 3.68 2.06 2.02 1.98 1.97 1.99 2.00 2.06 2.08 2.10 2.11 2.13 2.15 2.16 2.18 2.18 2.20 2.22 2.24 2.25 2.27 2.29 2.31 2.32 2.35 2.37 2.40 2.41 2.43 2.46 2.49 2.51 2.53 2.56 2.59 2.62 2.63 2.66 2.70 2.72 2.76 2.78 2.82 2.85 2.88 2.93 2.92 2.91 2.96 2.96 2.95 2.93 2.91 2.90 2.91 2.95 3.00 3.04 3.10 3.70 3.78 3.84 3.92 3.99 4.04 4.13 4.21 4.28 11.03 11.01 4.53 4.52 4.51 4.55 4.83 4.95 5.08 5.19 5.35 5.49 5.63 5.84 5.87 5.92 6.28 6.49 6.70 6.95 7.19 7.30 8.20 8.19 8.27 8.63 8.64 8.71 10.13 10.18 10.17 10.18 10.18 10.17 10.17 10.15 10.13 10.10 12.34 12.30 12.29 12.28 12.28 12.27 12.26 12.27 12.40 12.41 10.13 10.08 10.12 10.12 10.12 10.12 10.13 10.11 10.10 8.68 8.56 8.55 8.16 8.09 7.19 6.92 6.50 5.89 5.74 5.69 5.41 5.14 4.93 4.52 4.31 4.28 4.14 4.00 3.87 3.72 3.59 2.86 2.73 2.66 2.64 2.64 2.64 2.65 2.66 2.67 2.67 2.61 2.60 2.60 2.53 2.47 2.42 2.38 2.33 2.28 2.24 2.20 2.17 2.13 2.11 2.06 2.03 1.99 1.97 1.93 1.91 1.88 1.85 1.83 1.80 1.78 1.76 1.74 1.71 1.69 1.67 1.65 1.64 1.62 1.60 1.59 1.57 1.55 1.53 1.52 1.51 1.48 1.44 1.41 1.38 1.37 1.37 1.39 1.40 1.40 1.40 1.38 1.37 1.35 1.34 1.34 1.33 1.32 1.30 1.30 1.29 1.28 1.28 1.27 1.26 1.25 1.24 1.23 1.22 1.21 1.21 1.20 1.19 1.19 1.19 1.19 1.18 1.17 1.16 1.15 1.15 1.15 1.15 1.14 1.13 1.13 1.12 1.11 1.11 1.11 1.10 1.10 1.09 1.09 1.08 1.07 1.07 1.06 1.07 1.06 1.06 1.06 1.06 1.06 1.05 1.05 1.04 1.05 1.05 1.05 1.04 1.03 1.04 1.03 1.03 1.03 1.02 1.02 1.02 1.02 1.01 1.02 1.02 1.01 1.01 1.01 1.01 1.01 1.01 1.01 1.01 1.01 1.01 1.01 1.00 1.01 1.00 1.00 0.99 1.00 1.00 1.01 1.00 1.01 1.01 1.01 1.01 1.00 -3.000882 8.291849 -3.122499 -3.040875 8.291086 -3.122499 1214.710613 magnum 3.244790
FLASER 360 1.67 1.67 1.63 1.63 1.63 1.64 1.68 1.75 1.75 6.94 6.96 6.98 6.97 6.87 6.87 7.30 6.92 6.86 6.83 6.86 6.92 7.41 7.42 7.44 7.45 81.91 4.29 4.14 4.12 4.01 3.84 3.86 3.80 3.81 3.79 3.80 3.83 3.84 3.83 3.80 3.84 3.97 4.59 4.61 4.62 4.63 4.66 4.68 4.70 4.73 4.74 4.03 3.74 3.69 3.65 3.65 3.68 2.09 2.01 1.97 1.97 1.99 2.00 2.05 2.08 2.10 2.11 2.13 2.14 2.16 2.18 2.19 2.20 2.22 2.24 2.25 2.27 2.29 2.31 2.32 2.35 2.37 2.40 2.41 2.43 2.46 2.49 2.52 2.53 2.57 2.59 2.62 2.63 2.67 2.70 2.72 2.76 2.78 2.82 2.85 2.88 2.92 2.92 2.90 2.96 2.96 2.95 2.93 2.91 2.90 2.90 2.95 3.00 3.04 3.10 3.70 3.77 3.85 3.91 3.99 4.05 4.12 4.21 4.29 11.01 7.92 4.54 4.52 4.51 4.56 4.83 4.95 5.08 5.20 5.35 5.49 5.63 5.84 5.87 5.94 6.28 6.49 6.71 6.95 7.19 7.30 8.20 8.18 8.28 8.62 8.63 8.73 10.13 10.18 10.17 10.18 10.19 10.18 10.17 10.15 10.13 10.11 12.34 12.30 12.30 12.28 12.28 12.28 12.26 12.27 12.38 12.40 10.16 10.08 10.11 10.13 10.18 10.18 10.19 10.13 10.09 8.68 8.56 8.54 8.17 8.10 7.19 6.92 6.50 5.88 5.74 5.69 5.42 5.14 4.92 4.52 4.31 4.28 4.14 4.00 3.87 3.72 3.59 2.86 2.74 2.67 2.63 2.63 2.64 2.65 2.66 2.67 2.67 2.61 2.60 2.60 2.53 2.47 2.42 2.38 2.33 2.28 2.24 2.20 2.17 2.13 2.10 2.06 2.03 1.99 1.96 1.93 1.91 1.88 1.85 1.83 1.80 1.78 1.76 1.74 1.72 1.69 1.67 1.65 1.64 1.62 1.60 1.59 1.57 1.55 1.54 1.52 1.51 1.48 1.45 1.41 1.38 1.38 1.38 1.39 1.39 1.40 1.40 1.38 1.36 1.35 1.35 1.34 1.34 1.32 1.30 1.29 1.29 1.28 1.27 1.26 1.26 1.25 1.24 1.23 1.22 1.21 1.21 1.20 1.19 1.19 1.19 1.19 1.18 1.17 1.16 1.16 1.15 1.15 1.15 1.14 1.13 1.13 1.12 1.11 1.11 1.11 1.11 1.09 1.09 1.09 1.08 1.07 1.07 1.07 1.07 1.07 1.07 1.07 1.06 1.06 1.05 1.05 1.04 1.04 1.05 1.05 1.04 1.04 1.03 1.03 1.03 1.03 1.02 1.02 1.02 1.02 1.02 1.02 1.01 1.01 1.01 1.01 1.01 1.01 1.01 1.01 1.01 1.01 1.01 1.01 1.00 1.00 1.00 1.00 0.99 0.99 1.00 1.00 1.00 1.01 1.01 1.01 1.01 1.01 -3.027741 8.291215 -3.125920 -3.067736 8.290588 -3.125920 1214.930690 magnum 3.480420
FLASER 360 1.64 1.63 1.63 1.66 1.73 1.75 1.75 6.97 6.99 6.96 7.01 7.01 6.93 6.95 6.91 7.31 6.95 6.91 6.88 6.94 7.07 7.41 7.42 7.44 7.47 4.29 4.20 4.10 4.10 3.85 3.84 3.79 3.77 3.77 3.78 3.80 3.82 3.82 3.81 3.79 3.86 4.50 4.58 4.59 4.55 4.62 4.66 4.68 4.70 4.72 4.72 3.73 3.70 3.65 3.64 2.05 2.03 1.97 1.95 1.95 1.97 2.00 2.06 2.07 2.08 2.10 2.11 2.12 2.14 2.16 2.18 2.19 2.20 2.22 2.24 2.26 2.26 2.28 2.30 2.33 2.34 2.37 2.39 2.41 2.43 2.45 2.49 2.50 2.53 2.55 2.58 2.61 2.64 2.66 2.69 2.72 2.75 2.78 2.81 2.85 2.88 2.90 2.88 2.90 2.94 2.92 2.91 2.89 2.88 2.87 2.90 2.94 2.99 3.03 3.12 3.68 3.76 3.82 3.89 3.96 4.03 4.11 4.20 4.26 10.98 7.91 4.53 4.48 4.47 4.53 4.79 4.90 5.05 5.16 5.31 5.43 5.58 5.75 5.84 5.85 6.22 6.40 6.63 6.86 7.14 7.23 8.16 8.21 8.20 8.57 8.60 8.60 9.00 10.14 10.14 10.13 10.16 10.14 10.13 10.12 10.11 10.06 12.34 12.25 12.26 12.26 12.25 12.25 12.25 12.22 12.29 12.36 10.16 10.05 10.07 10.08 10.15 10.14 10.17 10.13 10.06 8.63 8.51 8.52 8.21 8.06 7.20 7.04 6.62 6.27 5.70 5.69 5.55 5.22 4.98 4.79 4.29 4.27 4.18 4.04 3.90 3.79 3.63 3.02 2.77 2.68 2.61 2.59 2.59 2.60 2.61 2.62 2.63 2.62 2.57 2.57 2.57 2.50 2.42 2.39 2.34 2.30 2.25 2.20 2.18 2.14 2.10 2.08 2.03 2.00 1.97 1.94 1.91 1.89 1.85 1.83 1.81 1.78 1.76 1.74 1.72 1.70 1.67 1.66 1.64 1.62 1.60 1.59 1.57 1.55 1.54 1.52 1.51 1.48 1.47 1.45 1.43 1.38 1.36 1.35 1.34 1.34 1.37 1.37 1.37 1.36 1.35 1.34 1.33 1.32 1.31 1.30 1.29 1.28 1.27 1.27 1.26 1.25 1.24 1.23 1.22 1.21 1.20 1.20 1.19 1.19 1.19 1.18 1.17 1.17 1.16 1.16 1.15 1.15 1.13 1.13 1.13 1.13 1.12 1.12 1.12 1.11 1.09 1.09 1.09 1.08 1.08 1.08 1.07 1.07 1.07 1.07 1.07 1.06 1.06 1.05 1.05 1.05 1.04 1.04 1.04 1.03 1.03 1.03 1.03 1.03 1.03 1.02 1.02 1.02 1.02 1.01 1.01 1.01 1.01 1.01 1.01 1.01 1.01 1.01 1.01 1.01 1.01 1.01 1.01 1.01 1.00 1.00 1.01 0.99 0.99 0.99 0.98 1.00 1.01 1.00 1.01 1.01 1.01 1.01 -3.085225 8.289993 -3.137611 -3.125224 8.289834 -3.137611 1215.140244 magnum 3.707459
FLASER 360 1.74 1.74 1.74 7.20 7.29 7.30 7.31 7.02 7.04 7.00 7.06 7.08 7.01 6.87 6.89 7.30 7.25 7.17 7.15 7.25 7.33 7.38 7.39 7.41 7.43 4.23 4.09 4.08 3.88 3.81 3.77 3.75 3.75 3.77 3.76 3.80 3.79 3.77 3.74 3.83 3.97 4.50 4.44 4.36 4.40 4.56 4.63 4.65 4.67 4.69 3.93 3.64 3.62 1.98 1.93 1.92 1.93 1.93 1.94 2.01 2.02 2.04 2.05 2.05 2.07 2.09 2.10 2.11 2.12 2.14 2.16 2.17 2.19 2.20 2.21 2.23 2.25 2.26 2.29 2.30 2.33 2.34 2.36 2.39 2.41 2.42 2.45 2.47 2.50 2.52 2.55 2.57 2.60 2.63 2.65 2.69 2.71 2.75 2.78 2.80 2.83 2.82 2.82 2.87 2.87 2.84 2.84 2.81 2.80 2.81 2.85 2.89 2.93 2.98 3.11 3.61 3.67 3.74 3.80 3.87 3.94 4.01 4.09 4.16 4.21 7.49 4.45 4.42 4.41 4.40 4.54 4.73 4.86 4.97 5.10 5.23 5.37 5.49 5.68 5.75 5.79 6.11 6.33 6.52 6.76 6.98 7.15 8.06 8.14 8.05 8.47 8.52 8.52 8.68 10.04 10.05 10.06 10.06 10.07 10.05 10.05 10.03 10.00 9.96 12.19 12.17 12.17 12.16 12.15 12.15 12.14 12.14 12.27 12.27 10.01 9.95 10.00 9.99 10.06 10.06 10.06 10.00 9.97 8.57 8.43 8.42 8.05 7.96 7.08 6.90 6.41 6.08 5.61 5.59 5.40 5.11 4.86 4.68 4.20 4.18 4.08 3.96 3.82 3.68 3.56 3.46 2.74 2.63 2.56 2.51 2.51 2.51 2.53 2.53 2.54 2.54 2.53 2.47 2.49 2.46 2.40 2.34 2.30 2.26 2.22 2.19 2.14 2.11 2.07 2.04 2.01 1.98 1.95 1.92 1.89 1.86 1.84 1.81 1.78 1.77 1.74 1.72 1.69 1.67 1.66 1.64 1.62 1.60 1.59 1.57 1.55 1.54 1.51 1.50 1.48 1.46 1.45 1.43 1.43 1.41 1.40 1.39 1.37 1.35 1.29 1.29 1.28 1.27 1.30 1.30 1.32 1.31 1.29 1.29 1.28 1.27 1.26 1.26 1.25 1.24 1.22 1.22 1.21 1.20 1.20 1.19 1.19 1.18 1.17 1.17 1.16 1.15 1.14 1.14 1.14 1.13 1.13 1.12 1.11 1.11 1.11 1.11 1.10 1.09 1.09 1.08 1.08 1.08 1.07 1.07 1.06 1.07 1.06 1.06 1.06 1.05 1.05 1.04 1.04 1.04 1.03 1.03 1.03 1.02 1.02 1.02 1.02 1.02 1.02 1.01 1.01 1.01 1.01 1.01 1.01 1.01 1.00 1.00 1.01 1.00 1.00 1.00 1.00 1.00 1.00 0.99 0.99 1.00 0.99 0.99 1.00 0.97 0.99 0.99 0.98 0.99 0.99 0.99 1.00 1.00 -3.213173 8.289316 3.128058 -3.253169 8.289858 3.128058 1215.350546 magnum 3.849752
FLASER 360 6.38 6.35 6.59 7.19 7.29 7.30 7.30 7.02 7.05 7.00 7.08 7.04 6.85 6.99 6.96 7.29 7.26 7.17 7.26 7.27 7.35 7.38 7.38 4.24 4.15 4.06 3.95 3.78 3.77 3.71 3.73 3.73 3.73 3.76 3.75 3.74 3.74 3.74 3.86 4.41 4.46 4.38 4.28 4.38 4.56 4.59 4.61 4.63 3.99 1.91 1.88 1.87 1.88 1.88 1.92 1.96 1.97 1.98 1.99 2.00 2.01 2.02 2.04 2.05 2.06 2.08 2.09 2.10 2.11 2.12 2.14 2.16 2.18 2.20 2.20 2.22 2.24 2.26 2.27 2.28 2.30 2.32 2.34 2.37 2.39 2.40 2.42 2.44 2.46 2.50 2.53 2.54 2.57 2.60 2.64 2.65 2.68 2.71 2.74 2.74 2.73 2.75 2.79 2.77 2.77 2.74 2.73 2.71 2.73 2.76 2.81 2.84 2.90 2.99 3.49 3.55 3.60 3.65 3.72 3.78 3.86 3.91 3.99 4.05 4.11 7.35 10.83 4.33 4.31 4.31 4.38 4.60 4.72 4.81 4.94 5.08 5.19 5.31 5.46 5.63 5.65 5.76 6.07 6.24 6.45 6.66 6.92 7.04 7.98 8.04 7.96 8.32 8.43 8.40 8.56 9.91 9.95 9.95 9.96 9.96 9.96 9.93 9.93 9.91 9.88 12.12 12.08 12.06 12.05 12.04 12.04 12.04 12.03 12.09 12.17 9.97 9.87 9.86 9.88 9.93 9.95 9.95 9.93 9.86 8.48 8.38 8.32 8.27 7.90 7.81 6.91 6.60 6.19 5.68 5.51 5.47 5.18 4.95 4.72 4.54 4.10 4.08 3.97 3.87 3.71 3.60 3.48 3.39 2.72 2.60 2.49 2.43 2.40 2.39 2.41 2.41 2.43 2.42 2.44 2.42 2.37 2.37 2.37 2.31 2.26 2.22 2.19 2.15 2.11 2.08 2.04 2.01 1.98 1.94 1.92 1.89 1.86 1.84 1.80 1.78 1.76 1.74 1.72 1.70 1.67 1.66 1.63 1.62 1.60 1.58 1.56 1.55 1.54 1.51 1.49 1.48 1.46 1.46 1.43 1.42 1.40 1.39 1.38 1.37 1.36 1.34 1.33 1.32 1.31 1.31 1.29 1.26 1.22 1.21 1.21 1.20 1.21 1.21 1.23 1.23 1.23 1.21 1.21 1.20 1.20 1.20 1.18 1.18 1.17 1.16 1.16 1.15 1.15 1.15 1.13 1.13 1.13 1.13 1.12 1.11 1.11 1.10 1.09 1.08 1.08 1.08 1.08 1.08 1.07 1.07 1.07 1.06 1.06 1.07 1.05 1.05 1.04 1.04 1.04 1.04 1.03 1.03 1.03 1.03 1.02 1.01 1.01 1.01 1.01 1.01 1.01 1.01 1.01 1.01 1.00 1.00 1.00 1.00 1.00 0.99 1.00 1.00 0.99 0.99 0.99 0.99 0.99 0.99 0.98 0.99 0.98 0.99 0.98 0.99 0.99 0.96 0.98 0.98 0.99 0.99 -3.310402 8.290289 3.112409 -3.350385 8.291456 3.112409 1215.570657 magnum 4.086996
FLASER 360 6.36 6.37 7.19 7.18 7.29 7.29 7.24 6.98 6.99 6.95 7.03 6.99 6.83 6.89 7.24 7.23 6.96 6.89 6.91 6.96 7.28 7.35 4.23 4.06 4.03 3.77 3.75 3.69 3.68 3.70 3.70 3.72 3.73 3.73 3.70 3.70 3.74 3.97 4.44 4.48 4.46 4.42 4.52 4.54 1.93 1.84 1.82 1.83 1.83 1.85 1.89 1.91 1.92 1.93 1.94 1.94 1.96 1.97 1.98 1.98 1.99 2.02 2.02 2.03 2.04 2.06 2.08 2.08 2.10 2.11 2.13 2.14 2.15 2.18 2.19 2.19 2.22 2.23 2.25 2.25 2.27 2.30 2.32 2.34 2.36 2.38 2.40 2.41 2.43 2.45 2.49 2.51 2.54 2.57 2.59 2.62 2.64 2.67 2.67 2.65 2.68 2.70 2.69 2.67 2.66 2.64 2.63 2.65 2.67 2.72 2.76 2.80 2.84 3.37 3.43 3.46 3.52 3.58 3.63 3.68 3.75 3.81 3.89 3.95 3.99 10.91 10.81 4.23 4.21 4.20 4.22 4.45 4.56 4.66 4.77 4.87 4.99 5.10 5.25 5.37 5.54 5.55 5.73 5.97 6.15 6.32 6.55 6.75 6.94 7.23 7.88 7.87 8.02 8.30 8.31 8.33 8.49 9.84 9.85 9.84 9.86 9.84 9.84 9.81 9.82 9.76 9.77 11.96 11.95 11.93 11.93 11.92 11.94 11.92 11.94 12.05 12.06 9.80 9.74 9.77 9.77 9.77 9.78 9.77 9.77 9.75 8.41 8.20 8.23 7.94 7.75 6.97 6.77 6.46 6.04 5.51 5.39 5.35 5.06 4.84 4.63 4.46 4.00 3.98 3.92 3.80 3.66 3.54 3.43 3.35 3.24 2.61 2.45 2.38 2.32 2.28 2.29 2.29 2.30 2.31 2.32 2.32 2.33 2.28 2.27 2.27 2.24 2.20 2.16 2.12 2.10 2.05 2.02 1.98 1.95 1.92 1.90 1.87 1.84 1.81 1.79 1.77 1.75 1.72 1.70 1.68 1.65 1.64 1.62 1.61 1.59 1.57 1.54 1.53 1.52 1.50 1.48 1.47 1.45 1.43 1.42 1.41 1.39 1.38 1.37 1.36 1.35 1.34 1.32 1.31 1.31 1.30 1.28 1.27 1.26 1.26 1.24 1.24 1.23 1.22 1.19 1.16 1.15 1.14 1.13 1.12 1.14 1.15 1.16 1.16 1.17 1.16 1.15 1.15 1.14 1.13 1.13 1.13 1.12 1.12 1.11 1.10 1.09 1.09 1.09 1.09 1.08 1.07 1.07 1.07 1.07 1.06 1.06 1.06 1.05 1.04 1.04 1.03 1.04 1.03 1.02 1.02 1.01 1.02 1.02 1.02 1.02 1.01 1.01 1.01 1.01 1.01 1.01 1.01 1.00 1.00 1.00 1.00 0.99 0.99 0.99 0.99 0.99 0.99 0.99 0.99 0.99 0.99 0.98 0.98 0.98 0.99 0.99 0.98 0.97 0.98 0.98 0.97 0.97 0.98 -3.400364 8.292616 3.097471 -3.440325 8.294380 3.097471 1215.780223 magnum 4.321525
FLASER 360 6.36 6.36 7.16 7.20 7.28 7.29 7.28 6.99 7.01 6.97 7.03 7.01 6.83 6.96 7.02 7.24 7.06 6.95 6.99 7.05 7.29 4.20 4.04 3.91 3.73 3.71 3.68 3.67 3.68 3.67 3.69 3.70 3.69 3.67 3.68 3.73 4.05 4.38 4.39 4.33 1.90 1.79 1.79 1.80 1.80 1.81 1.85 1.86 1.87 1.89 1.89 1.90 1.91 1.91 1.92 1.93 1.94 1.95 1.96 1.97 1.98 2.00 2.01 2.01 2.03 2.04 2.05 2.07 2.08 2.09 2.10 2.11 2.13 2.15 2.16 2.18 2.18 2.20 2.21 2.24 2.25 2.27 2.29 2.31 2.32 2.34 2.37 2.39 2.41 2.42 2.44 2.47 2.50 2.52 2.54 2.57 2.59 2.57 2.58 2.62 2.63 2.61 2.59 2.56 2.55 2.54 2.55 2.59 2.62 2.67 2.69 2.75 3.25 3.31 3.34 3.39 3.44 3.48 3.55 3.59 3.64 3.70 3.76 3.83 3.88 81.91 7.11 4.15 4.14 4.11 4.10 4.16 4.39 4.48 4.58 4.67 4.79 4.88 5.03 5.14 5.28 5.43 5.44 5.54 5.83 6.00 6.18 6.37 6.58 6.78 6.89 7.77 7.82 7.76 8.18 8.22 8.20 8.36 9.71 9.74 9.74 9.74 9.75 9.73 9.73 9.73 9.71 9.65 11.94 11.84 11.86 11.84 11.83 11.82 11.83 11.80 11.84 11.95 11.96 9.68 9.62 9.66 9.70 9.74 9.75 9.75 9.70 9.64 8.30 8.09 8.11 7.82 7.64 6.98 6.69 6.39 5.98 5.56 5.29 5.27 5.07 4.81 4.60 4.43 4.14 3.88 3.86 3.73 3.62 3.52 3.40 3.32 3.21 3.13 2.53 2.39 2.30 2.25 2.21 2.18 2.20 2.20 2.22 2.22 2.22 2.22 2.23 2.18 2.18 2.17 2.15 2.10 2.07 2.03 2.00 1.97 1.94 1.91 1.89 1.85 1.84 1.81 1.78 1.76 1.73 1.71 1.69 1.67 1.64 1.63 1.61 1.59 1.58 1.56 1.53 1.52 1.50 1.49 1.47 1.45 1.44 1.42 1.41 1.39 1.38 1.37 1.36 1.36 1.34 1.33 1.31 1.30 1.30 1.29 1.28 1.27 1.26 1.25 1.24 1.22 1.22 1.21 1.21 1.20 1.20 1.19 1.18 1.17 1.16 1.15 1.15 1.13 1.09 1.09 1.07 1.07 1.07 1.07 1.10 1.11 1.11 1.11 1.10 1.09 1.09 1.09 1.09 1.08 1.07 1.06 1.06 1.05 1.06 1.06 1.05 1.05 1.05 1.04 1.04 1.04 1.03 1.03 1.02 1.02 1.02 1.01 1.01 1.01 1.01 1.01 1.01 1.01 1.01 1.00 1.00 1.00 0.99 0.99 1.00 0.99 0.99 1.00 0.99 0.99 0.98 0.98 0.99 0.99 0.98 0.98 0.99 0.98 0.99 0.98 0.98 0.98 0.96 0.97 0.96 0.97 -3.537409 8.298306 3.073512 -3.577316 8.301027 3.073512 1215.991450 magnum 4.562038
FLASER 360 6.36 6.36 6.62 7.17 7.20 7.28 7.29 6.98 6.99 6.96 6.98 7.02 7.08 7.09 6.88 7.24 7.11 7.02 6.98 7.08 7.22 4.02 3.90 3.70 3.70 3.65 3.65 3.65 3.65 3.67 3.67 3.67 3.64 3.65 3.69 4.12 1.81 1.75 1.76 1.76 1.77 1.79 1.83 1.83 1.84 1.83 1.84 1.85 1.85 1.86 1.88 1.89 1.89 1.89 1.90 1.91 1.93 1.93 1.95 1.96 1.97 1.97 1.98 1.99 2.01 2.02 2.03 2.03 2.05 2.06 2.08 2.09 2.10 2.11 2.13 2.14 2.16 2.16 2.19 2.20 2.22 2.23 2.25 2.26 2.28 2.31 2.32 2.34 2.35 2.38 2.40 2.41 2.44 2.46 2.51 2.52 2.50 2.49 2.54 2.54 2.53 2.51 2.50 2.46 2.45 2.46 2.50 2.54 2.56 2.59 2.63 2.70 3.16 3.21 3.25 3.30 3.34 3.39 3.45 3.47 3.54 3.58 3.64 3.68 3.75 3.79 6.73 6.99 4.07 4.03 4.01 4.00 4.10 4.29 4.39 4.48 4.57 4.65 4.78 4.88 5.01 5.12 5.28 5.34 5.36 5.62 5.82 5.96 6.16 6.34 6.58 6.70 7.03 7.74 7.66 7.69 8.09 8.10 8.10 8.29 9.61 9.63 9.62 9.61 9.66 9.62 9.62 9.61 9.59 9.55 11.81 11.74 11.73 11.72 11.71 11.70 11.72 11.71 11.72 11.79 11.86 9.60 9.52 9.55 9.61 9.56 9.68 9.58 9.62 9.53 8.10 8.05 8.01 7.98 7.57 7.55 6.64 6.47 6.01 5.74 5.19 5.18 5.11 4.84 4.61 4.45 4.24 4.01 3.76 3.73 3.63 3.53 3.42 3.34 3.22 3.14 3.04 2.97 2.37 2.28 2.19 2.15 2.11 2.07 2.10 2.09 2.11 2.11 2.13 2.13 2.14 2.12 2.08 2.08 2.08 2.05 2.01 1.97 1.94 1.91 1.89 1.86 1.83 1.81 1.78 1.76 1.74 1.72 1.68 1.66 1.64 1.63 1.61 1.60 1.57 1.55 1.53 1.51 1.50 1.49 1.47 1.45 1.44 1.43 1.41 1.40 1.38 1.37 1.35 1.35 1.33 1.32 1.31 1.30 1.29 1.29 1.28 1.27 1.26 1.25 1.23 1.23 1.21 1.21 1.20 1.20 1.20 1.19 1.17 1.17 1.15 1.16 1.15 1.14 1.14 1.12 1.12 1.11 1.10 1.10 1.09 1.08 1.08 1.07 1.02 1.02 1.02 1.01 1.02 1.02 1.05 1.05 1.06 1.06 1.06 1.06 1.04 1.05 1.04 1.04 1.04 1.04 1.02 1.02 1.02 1.01 1.02 1.01 1.01 1.01 1.01 1.00 1.00 1.00 1.00 1.00 1.00 1.00 0.99 0.99 0.99 0.99 0.98 0.98 0.98 0.98 0.98 0.98 0.98 0.97 0.97 0.97 0.97 0.97 0.99 0.98 0.97 0.97 0.96 0.97 -3.630823 8.304391 3.056657 -3.670679 8.307785 3.056657 1216.210495 magnum 4.785980
FLASER 360 6.39 6.36 6.94 7.18 7.18 7.28 7.28 7.06 7.07 7.08 7.03 7.09 7.12 6.90 6.81 7.23 7.24 7.26 7.24 4.15 3.99 3.78 3.70 3.66 3.63 3.64 3.64 3.62 3.64 3.65 3.62 1.77 1.78 1.73 1.72 1.73 1.74 1.79 1.79 1.80 1.80 1.81 1.81 1.82 1.83 1.82 1.83 1.84 1.84 1.85 1.87 1.87 1.89 1.88 1.90 1.91 1.91 1.91 1.93 1.93 1.95 1.96 1.97 1.97 1.98 1.99 2.01 2.02 2.02 2.03 2.05 2.07 2.08 2.09 2.09 2.11 2.13 2.14 2.16 2.17 2.18 2.20 2.22 2.23 2.25 2.27 2.29 2.30 2.32 2.33 2.36 2.39 2.40 2.41 2.42 2.41 2.41 2.46 2.45 2.42 2.42 2.39 2.37 2.36 2.38 2.41 2.44 2.47 2.51 2.53 2.60 3.05 3.09 3.12 3.17 3.21 3.25 3.29 3.34 3.39 3.45 3.49 3.55 3.59 3.66 3.69 81.91 81.91 81.91 3.96 3.92 3.90 3.93 4.12 4.23 4.30 4.41 4.48 4.59 4.67 4.80 4.89 5.03 5.13 5.25 5.25 5.51 5.64 5.83 5.98 6.20 6.35 6.59 6.63 7.55 7.60 7.54 7.73 8.00 8.00 8.02 8.33 9.52 9.52 9.52 9.53 9.54 9.51 9.51 9.50 9.47 9.43 11.71 11.64 11.63 11.62 11.61 11.60 11.62 11.59 11.63 11.72 11.73 9.48 9.41 9.43 9.45 9.46 9.50 9.47 9.46 9.42 8.04 7.96 7.90 7.87 7.47 7.41 6.55 6.41 5.98 5.72 5.13 5.05 5.03 4.88 4.59 4.44 4.24 4.12 3.68 3.64 3.60 3.51 3.40 3.32 3.21 3.14 3.04 2.97 2.88 2.82 2.23 2.15 2.09 2.04 2.00 1.98 1.99 1.98 2.00 2.00 2.02 2.02 2.05 2.03 1.98 1.98 1.99 1.98 1.94 1.91 1.88 1.85 1.83 1.80 1.78 1.75 1.73 1.71 1.69 1.67 1.64 1.62 1.60 1.59 1.57 1.55 1.53 1.51 1.50 1.48 1.46 1.45 1.43 1.42 1.41 1.39 1.38 1.37 1.35 1.35 1.34 1.33 1.31 1.30 1.28 1.28 1.27 1.26 1.25 1.24 1.23 1.22 1.22 1.21 1.20 1.20 1.19 1.18 1.18 1.17 1.16 1.15 1.14 1.13 1.12 1.12 1.11 1.11 1.10 1.09 1.08 1.08 1.07 1.07 1.07 1.07 1.06 1.06 1.05 1.05 1.04 1.04 1.03 1.03 1.00 0.99 0.97 0.97 0.97 0.96 0.97 0.97 1.02 1.01 1.01 1.01 1.01 1.01 1.01 1.00 1.01 1.00 1.00 1.00 0.99 0.99 0.99 0.98 0.99 0.99 0.99 0.99 0.99 0.99 0.98 0.98 0.98 0.98 0.98 0.98 0.97 0.97 0.97 0.98 0.97 0.96 0.98 0.97 -3.724015 8.312050 3.041240 -3.763814 8.316057 3.041240 1216.420222 magnum 4.919457
FLASER 360 6.38 6.36 7.18 7.16 7.18 7.26 7.27 7.02 7.06 7.01 7.01 7.03 7.10 7.17 6.84 7.20 7.21 7.22 4.01 3.84 3.68 3.65 3.61 3.61 3.61 3.61 1.74 1.68 1.68 1.69 1.69 1.74 1.76 1.76 1.76 1.76 1.77 1.78 1.78 1.78 1.79 1.79 1.80 1.80 1.81 1.81 1.82 1.82 1.82 1.83 1.84 1.84 1.85 1.86 1.88 1.89 1.89 1.89 1.90 1.90 1.92 1.93 1.94 1.95 1.96 1.97 1.99 1.99 2.01 2.02 2.03 2.04 2.05 2.06 2.08 2.08 2.10 2.11 2.13 2.15 2.16 2.17 2.18 2.20 2.21 2.23 2.25 2.26 2.28 2.31 2.32 2.34 2.33 2.31 2.33 2.36 2.36 2.33 2.33 2.30 2.29 2.26 2.28 2.31 2.33 2.35 2.39 2.40 2.44 2.56 2.94 2.98 3.02 3.05 3.09 3.13 3.17 3.22 3.26 3.30 3.35 3.40 3.45 3.50 3.55 3.60 3.62 10.60 10.61 3.84 3.83 3.80 3.81 3.88 4.09 4.16 4.25 4.32 4.42 4.50 4.60 4.70 4.81 4.91 5.04 5.14 5.15 5.35 5.54 5.69 5.87 6.03 6.22 6.42 6.52 7.46 7.43 7.42 7.50 7.85 7.90 7.88 8.08 9.37 9.42 9.40 9.42 9.42 9.41 9.39 9.39 9.38 9.35 9.32 11.55 11.51 11.53 11.48 11.52 11.48 11.50 11.48 11.53 11.64 9.45 9.33 9.31 9.33 9.34 9.33 9.34 9.34 9.33 9.32 7.88 7.82 7.79 7.76 7.36 7.29 6.45 6.32 5.92 5.64 5.20 4.94 4.93 4.81 4.56 4.40 4.20 4.09 3.91 3.55 3.53 3.48 3.37 3.30 3.19 3.12 3.03 2.95 2.87 2.80 2.73 2.67 2.13 2.03 1.98 1.95 1.90 1.88 1.87 1.87 1.89 1.89 1.91 1.91 1.93 1.93 1.92 1.89 1.88 1.88 1.88 1.85 1.81 1.80 1.77 1.75 1.73 1.71 1.68 1.66 1.64 1.61 1.60 1.58 1.56 1.55 1.53 1.51 1.50 1.48 1.46 1.45 1.43 1.42 1.41 1.39 1.38 1.37 1.35 1.34 1.33 1.32 1.31 1.30 1.28 1.28 1.27 1.27 1.25 1.25 1.23 1.22 1.21 1.20 1.20 1.19 1.19 1.17 1.18 1.17 1.16 1.15 1.13 1.13 1.12 1.12 1.12 1.11 1.10 1.10 1.09 1.08 1.08 1.07 1.07 1.06 1.06 1.06 1.05 1.05 1.04 1.04 1.03 1.03 1.03 1.02 1.02 1.02 1.01 1.01 1.00 1.00 1.00 1.00 1.00 1.00 0.96 0.96 0.94 0.94 0.94 0.94 0.93 0.93 0.99 0.99 0.99 0.99 0.99 0.99 0.99 0.99 0.99 0.99 0.99 0.98 0.99 0.99 0.98 0.99 0.98 0.98 0.97 0.97 0.97 0.97 -3.818953 8.321378 3.025071 -3.858682 8.326029 3.025071 1216.630413 magnum 5.134479
FLASER 360 6.37 6.37 7.19 7.16 7.18 7.27 7.27 6.97 6.97 6.95 6.96 6.98 7.04 7.23 6.83 7.21 7.12 3.96 3.68 3.66 3.59 1.71 1.67 1.67 1.67 1.68 1.71 1.74 1.74 1.74 1.74 1.74 1.74 1.75 1.75 1.76 1.76 1.76 1.76 1.78 1.78 1.78 1.79 1.80 1.80 1.81 1.81 1.82 1.82 1.82 1.83 1.83 1.84 1.85 1.86 1.87 1.87 1.88 1.90 1.90 1.91 1.91 1.92 1.93 1.94 1.95 1.96 1.97 1.98 2.00 2.01 2.02 2.03 2.04 2.06 2.06 2.08 2.08 2.09 2.11 2.14 2.15 2.16 2.18 2.19 2.20 2.22 2.24 2.25 2.27 2.26 2.23 2.26 2.28 2.29 2.26 2.25 2.22 2.21 2.19 2.19 2.22 2.24 2.26 2.30 2.30 2.34 2.39 2.63 2.85 2.89 2.93 2.96 2.99 3.03 3.05 3.09 3.14 3.17 3.22 3.27 3.31 3.36 3.41 3.46 3.50 3.52 6.77 81.91 3.79 3.72 3.69 3.69 3.72 3.96 4.03 4.11 4.18 4.27 4.35 4.44 4.53 4.63 4.73 4.82 4.93 5.02 5.02 5.28 5.41 5.58 5.72 5.90 6.07 6.29 6.40 6.67 7.33 7.37 7.31 7.74 7.78 7.78 7.79 7.97 9.29 9.31 9.29 9.32 9.31 9.31 9.28 9.28 9.27 9.23 9.22 11.42 11.40 11.41 11.38 11.39 11.39 11.39 11.37 11.45 11.52 9.32 9.21 9.21 9.22 9.23 9.22 9.25 9.23 9.23 9.21 7.94 7.70 7.69 7.64 7.25 7.20 6.34 6.23 5.85 5.59 5.29 4.85 4.83 4.79 4.52 4.37 4.18 4.05 3.89 3.68 3.44 3.43 3.35 3.27 3.18 3.10 3.01 2.94 2.86 2.80 2.73 2.68 2.61 2.56 2.04 1.97 1.90 1.87 1.83 1.80 1.78 1.78 1.79 1.80 1.81 1.81 1.84 1.84 1.85 1.84 1.80 1.79 1.80 1.80 1.78 1.75 1.73 1.70 1.68 1.66 1.64 1.62 1.61 1.59 1.58 1.54 1.53 1.52 1.50 1.48 1.47 1.45 1.43 1.42 1.41 1.39 1.38 1.37 1.35 1.34 1.34 1.33 1.32 1.30 1.29 1.28 1.27 1.27 1.26 1.25 1.24 1.23 1.22 1.21 1.20 1.19 1.19 1.19 1.18 1.16 1.16 1.15 1.14 1.13 1.13 1.13 1.13 1.12 1.10 1.10 1.09 1.09 1.08 1.08 1.07 1.06 1.06 1.06 1.06 1.06 1.05 1.04 1.04 1.04 1.03 1.03 1.02 1.02 1.01 1.01 1.01 1.00 1.00 1.00 1.00 1.00 1.00 1.00 0.99 0.99 0.99 0.99 0.98 0.98 0.98 0.97 0.98 0.98 0.95 0.94 0.93 0.93 0.92 0.92 0.93 0.92 0.95 0.96 0.98 0.99 0.98 0.98 0.97 0.98 -3.964076 8.338163 3.001306 -4.003683 8.343756 3.001306 1216.850829 magnum 5.360385
FLASER 360 6.35 6.38 7.19 7.15 7.17 7.25 7.25 6.91 6.90 6.90 6.87 6.91 7.01 7.21 6.84 7.17 1.65 1.65 1.65 1.64 1.66 1.70 1.71 1.72 1.72 1.71 1.72 1.72 1.72 1.73 1.73 1.73 1.74 1.74 1.74 1.74 1.75 1.75 1.75 1.76 1.76 1.77 1.77 1.77 1.78 1.79 1.79 1.79 1.80 1.81 1.82 1.81 1.82 1.82 1.83 1.84 1.85 1.85 1.87 1.87 1.88 1.89 1.90 1.90 1.92 1.92 1.93 1.95 1.96 1.96 1.97 1.98 1.99 2.00 2.02 2.02 2.04 2.05 2.07 2.08 2.10 2.11 2.13 2.14 2.16 2.16 2.18 2.19 2.18 2.16 2.18 2.20 2.22 2.19 2.18 2.15 2.14 2.10 2.11 2.13 2.16 2.17 2.19 2.21 2.24 2.26 2.32 2.73 2.76 2.79 2.82 2.85 2.88 2.92 2.96 2.99 3.03 3.06 3.11 3.13 3.18 3.22 3.26 3.31 3.36 3.40 3.43 5.73 6.62 81.91 3.64 3.60 3.59 3.59 3.70 3.88 3.95 4.03 4.11 4.18 4.27 4.33 4.44 4.53 4.63 4.71 4.84 4.91 4.92 5.09 5.29 5.42 5.59 5.73 5.92 6.07 6.27 6.31 7.25 7.29 7.22 7.28 7.66 7.68 7.68 7.78 9.16 9.21 9.20 9.19 9.22 9.21 9.20 9.18 9.18 9.15 9.12 11.40 11.32 11.30 11.31 11.28 11.28 11.28 11.27 11.27 11.38 11.40 9.21 9.09 9.11 9.13 9.18 9.20 9.21 9.22 9.14 9.10 7.86 7.58 7.57 7.54 7.15 7.09 6.28 6.15 5.84 5.58 5.29 4.85 4.73 4.72 4.56 4.36 4.18 4.04 3.90 3.78 3.47 3.33 3.33 3.27 3.18 3.11 3.02 2.96 2.86 2.81 2.73 2.68 2.61 2.57 2.50 2.45 2.04 1.94 1.83 1.81 1.77 1.75 1.71 1.69 1.70 1.70 1.71 1.71 1.73 1.73 1.75 1.75 1.76 1.74 1.71 1.70 1.72 1.71 1.69 1.67 1.63 1.63 1.61 1.59 1.57 1.56 1.54 1.52 1.50 1.50 1.47 1.46 1.43 1.43 1.41 1.40 1.39 1.38 1.36 1.35 1.34 1.33 1.32 1.31 1.29 1.29 1.28 1.28 1.26 1.25 1.24 1.23 1.22 1.21 1.20 1.20 1.20 1.19 1.18 1.18 1.17 1.16 1.15 1.14 1.13 1.12 1.12 1.12 1.11 1.10 1.09 1.09 1.08 1.08 1.07 1.07 1.06 1.06 1.06 1.06 1.05 1.05 1.04 1.04 1.03 1.03 1.03 1.02 1.02 1.01 1.01 1.01 1.00 1.01 1.00 1.00 1.00 1.00 1.00 1.00 0.99 0.99 0.99 0.98 0.98 0.98 0.98 0.98 0.98 0.97 0.97 0.97 0.97 0.97 0.97 0.97 0.96 0.96 0.97 0.96 0.96 0.95 -4.051265 8.350148 2.985457 -4.090778 8.356368 2.985457 1217.060609 magnum 5.600059
FLASER 360 6.35 6.35 7.12 7.15 7.17 7.25 7.25 6.90 6.88 6.87 6.86 1.64 1.64 1.63 1.64 1.67 1.69 1.69 1.70 1.70 1.69 1.69 1.70 1.70 1.70 1.70 1.70 1.71 1.71 1.71 1.72 1.72 1.73 1.73 1.73 1.74 1.74 1.74 1.74 1.75 1.74 1.74 1.75 1.75 1.76 1.77 1.77 1.77 1.78 1.79 1.79 1.79 1.80 1.80 1.81 1.82 1.83 1.83 1.84 1.85 1.86 1.87 1.88 1.89 1.90 1.91 1.91 1.92 1.93 1.93 1.94 1.95 1.96 1.97 1.98 1.99 2.01 2.02 2.04 2.05 2.06 2.08 2.09 2.09 2.11 2.12 2.11 2.09 2.11 2.12 2.15 2.11 2.11 2.07 2.06 2.03 2.04 2.04 2.06 2.08 2.11 2.11 2.13 2.16 2.19 2.25 2.63 2.66 2.69 2.72 2.75 2.77 2.81 2.83 2.87 2.89 2.94 2.97 3.02 3.04 3.09 3.11 3.16 3.20 3.24 3.29 3.33 5.56 5.65 6.21 81.91 3.53 3.51 3.50 3.52 3.69 3.79 3.86 3.94 4.00 4.08 4.16 4.24 4.32 4.41 4.49 4.60 4.68 4.80 4.80 4.88 5.13 5.26 5.39 5.55 5.69 5.87 6.04 6.19 6.31 7.13 7.19 7.12 7.23 7.55 7.56 7.56 7.74 9.05 9.11 9.10 9.09 9.12 9.11 9.09 9.08 9.08 9.05 9.01 11.29 11.21 11.18 11.20 11.18 11.18 11.17 11.17 11.17 11.25 11.30 9.11 9.00 8.99 9.03 9.07 9.11 9.12 9.13 9.08 9.00 9.01 7.56 7.47 7.47 7.13 7.00 7.01 6.11 5.95 5.65 5.35 5.14 4.65 4.63 4.60 4.44 4.23 4.09 3.93 3.83 3.67 3.57 3.25 3.23 3.20 3.13 3.05 2.97 2.90 2.83 2.76 2.70 2.63 2.59 2.52 2.47 2.42 2.38 2.32 2.28 1.84 1.76 1.73 1.71 1.67 1.65 1.63 1.60 1.61 1.60 1.63 1.62 1.64 1.64 1.66 1.66 1.67 1.67 1.62 1.63 1.63 1.63 1.63 1.61 1.58 1.57 1.54 1.53 1.51 1.51 1.48 1.47 1.46 1.43 1.42 1.41 1.40 1.39 1.37 1.36 1.35 1.35 1.33 1.32 1.31 1.30 1.29 1.28 1.27 1.26 1.25 1.24 1.23 1.23 1.21 1.21 1.20 1.20 1.19 1.19 1.17 1.17 1.16 1.15 1.14 1.14 1.13 1.13 1.12 1.11 1.11 1.10 1.10 1.09 1.08 1.08 1.07 1.07 1.07 1.06 1.06 1.05 1.05 1.05 1.04 1.04 1.03 1.03 1.03 1.02 1.02 1.02 1.01 1.01 1.01 1.00 1.00 1.00 1.00 1.00 0.99 0.99 0.99 0.99 0.99 0.99 0.98 0.98 0.98 0.98 0.98 0.98 0.97 0.97 0.97 0.97 0.98 0.98 0.97 0.97 -4.150823 8.365532 2.967748 -4.190220 8.372451 2.967748 1217.270640 magnum 5.844874
FLASER 360 6.38 6.38 7.02 7.19 7.16 1.62 1.63 1.63 1.64 1.66 1.68 1.67 1.67 1.67 1.68 1.68 1.68 1.68 1.68 1.69 1.68 1.68 1.69 1.69 1.69 1.69 1.70 1.69 1.70 1.70 1.71 1.71 1.71 1.71 1.72 1.72 1.71 1.72 1.72 1.73 1.73 1.73 1.74 1.74 1.74 1.74 1.75 1.75 1.76 1.76 1.77 1.77 1.78 1.79 1.79 1.80 1.81 1.81 1.82 1.82 1.84 1.84 1.85 1.86 1.87 1.87 1.89 1.90 1.91 1.91 1.91 1.92 1.94 1.94 1.96 1.96 1.98 1.98 2.00 2.01 2.02 2.03 2.05 2.04 2.04 2.02 2.03 2.06 2.08 2.04 2.03 2.00 1.98 1.95 1.96 1.97 1.98 2.00 2.02 2.03 2.05 2.07 2.09 2.13 2.27 2.55 2.58 2.59 2.62 2.64 2.68 2.70 2.73 2.75 2.79 2.82 2.85 2.88 2.92 2.94 2.99 3.02 3.06 3.09 3.14 3.16 3.23 3.24 5.48 5.46 5.96 3.47 3.44 3.39 3.39 3.43 3.63 3.67 3.75 3.83 3.90 3.97 4.05 4.13 4.21 4.28 4.38 4.45 4.55 4.64 4.71 4.71 4.94 5.05 5.21 5.33 5.49 5.63 5.82 5.99 6.11 6.32 7.09 7.07 7.00 7.20 7.45 7.46 7.46 7.60 8.95 8.99 8.99 8.97 9.01 8.99 8.99 8.97 8.96 8.95 8.90 8.88 11.10 11.08 11.10 11.08 11.07 11.07 11.07 11.05 11.10 11.20 11.21 8.93 8.86 8.90 8.92 8.96 8.99 8.98 8.99 8.89 8.90 7.62 7.35 7.35 7.32 6.96 6.91 6.83 5.96 5.80 5.44 5.24 4.94 4.55 4.52 4.50 4.29 4.16 3.98 3.88 3.74 3.62 3.50 3.31 3.14 3.13 3.06 3.01 2.93 2.87 2.79 2.74 2.67 2.61 2.55 2.51 2.45 2.40 2.35 2.31 2.26 2.23 2.18 2.06 1.72 1.67 1.64 1.62 1.59 1.57 1.54 1.52 1.52 1.52 1.53 1.53 1.55 1.55 1.57 1.57 1.60 1.60 1.58 1.57 1.54 1.53 1.55 1.55 1.53 1.52 1.50 1.48 1.46 1.45 1.43 1.43 1.41 1.40 1.38 1.37 1.36 1.35 1.34 1.33 1.32 1.31 1.30 1.29 1.28 1.28 1.27 1.26 1.24 1.24 1.23 1.22 1.20 1.20 1.20 1.19 1.18 1.18 1.17 1.17 1.16 1.15 1.14 1.13 1.12 1.12 1.11 1.12 1.10 1.10 1.10 1.08 1.08 1.08 1.07 1.07 1.07 1.07 1.06 1.06 1.05 1.05 1.05 1.05 1.04 1.03 1.02 1.02 1.02 1.02 1.01 1.01 1.00 1.00 1.00 1.00 1.00 1.00 1.00 1.00 1.00 0.99 0.99 0.99 0.99 0.99 0.98 0.98 0.99 0.98 0.98 0.98 0.99 0.98 -4.280181 8.387991 2.948566 -4.319438 8.395664 2.948566 1217.490267 magnum 6.080944
FLASER 360 1.63 1.63 1.62 1.66 1.67 1.66 1.66 1.66 1.67 1.67 1.67 1.66 1.68 1.67 1.66 1.67 1.66 1.66 1.66 1.67 1.66 1.67 1.67 1.68 1.68 1.68 1.68 1.68 1.69 1.69 1.68 1.69 1.69 1.69 1.70 1.70 1.70 1.71 1.70 1.71 1.71 1.72 1.72 1.73 1.72 1.73 1.74 1.74 1.74 1.74 1.75 1.76 1.76 1.76 1.77 1.78 1.79 1.80 1.80 1.81 1.82 1.83 1.83 1.84 1.84 1.85 1.86 1.87 1.88 1.89 1.90 1.90 1.91 1.91 1.93 1.94 1.95 1.97 1.97 1.98 1.97 1.95 1.95 1.98 2.00 1.98 1.97 1.93 1.92 1.89 1.88 1.88 1.90 1.91 1.92 1.93 1.95 1.97 1.99 2.00 2.03 2.14 2.43 2.45 2.47 2.50 2.53 2.56 2.58 2.60 2.63 2.66 2.68 2.71 2.74 2.77 2.80 2.83 2.86 2.89 2.94 2.97 3.01 3.04 3.08 3.12 3.13 5.39 5.37 5.35 81.91 3.34 3.31 3.30 3.31 3.39 3.54 3.60 3.65 3.72 3.81 3.88 3.95 4.02 4.10 4.18 4.25 4.34 4.43 4.52 4.61 4.60 4.70 4.90 5.04 5.17 5.31 5.46 5.62 5.77 5.95 6.00 6.94 6.97 6.94 6.89 7.28 7.35 7.35 7.34 7.63 8.83 8.88 8.86 8.86 8.88 8.88 8.85 8.85 8.84 8.83 8.78 11.10 10.99 10.97 10.97 10.97 10.95 10.97 10.96 10.95 10.98 11.10 11.08 8.83 8.75 8.79 8.80 8.85 8.85 8.87 8.87 8.79 8.79 7.44 7.30 7.25 7.23 6.93 6.77 6.80 5.93 5.81 5.54 5.26 5.02 4.79 4.44 4.42 4.39 4.17 4.03 3.91 3.78 3.65 3.56 3.44 3.35 3.06 3.03 3.02 2.95 2.90 2.83 2.77 2.72 2.64 2.60 2.54 2.49 2.43 2.39 2.33 2.30 2.25 2.21 2.17 2.14 2.09 2.07 1.79 1.68 1.59 1.56 1.54 1.52 1.50 1.48 1.45 1.44 1.43 1.43 1.45 1.45 1.46 1.46 1.48 1.48 1.50 1.52 1.52 1.50 1.47 1.45 1.47 1.47 1.48 1.46 1.44 1.43 1.41 1.40 1.38 1.38 1.36 1.35 1.35 1.34 1.32 1.31 1.30 1.29 1.29 1.28 1.27 1.26 1.25 1.24 1.23 1.22 1.21 1.20 1.20 1.20 1.19 1.19 1.17 1.17 1.17 1.16 1.15 1.14 1.13 1.14 1.14 1.12 1.11 1.11 1.10 1.10 1.09 1.09 1.08 1.08 1.07 1.07 1.07 1.07 1.06 1.05 1.05 1.05 1.04 1.04 1.04 1.03 1.03 1.03 1.02 1.02 1.02 1.02 1.01 1.01 1.01 1.01 1.01 1.00 1.00 1.00 1.00 1.00 1.00 1.00 1.00 0.99 1.00 0.99 1.00 0.99 -4.363719 8.404201 2.943328 -4.402935 8.412080 2.943328 1217.700223 magnum 6.212368
FLASER 360 1.66 1.66 1.66 1.67 1.66 1.65 1.66 1.65 1.65 1.66 1.65 1.65 1.68 1.65 1.66 1.66 1.66 1.66 1.66 1.66 1.66 1.66 1.66 1.66 1.66 1.66 1.66 1.67 1.67 1.67 1.68 1.68 1.68 1.68 1.69 1.69 1.69 1.70 1.69 1.70 1.70 1.70 1.71 1.72 1.71 1.72 1.72 1.73 1.74 1.74 1.75 1.75 1.75 1.76 1.77 1.77 1.78 1.78 1.79 1.79 1.80 1.81 1.82 1.83 1.83 1.83 1.84 1.85 1.86 1.87 1.88 1.90 1.90 1.91 1.91 1.91 1.88 1.89 1.90 1.94 1.93 1.90 1.87 1.85 1.83 1.81 1.81 1.82 1.83 1.84 1.85 1.87 1.88 1.90 1.91 1.93 1.94 2.04 2.34 2.36 2.38 2.40 2.42 2.43 2.46 2.47 2.51 2.53 2.56 2.58 2.60 2.63 2.66 2.69 2.72 2.75 2.77 2.81 2.84 2.88 2.91 2.94 2.99 3.02 3.04 81.91 5.40 5.29 5.28 3.28 3.24 3.21 3.20 3.24 3.38 3.46 3.51 3.55 3.63 3.69 3.75 3.84 3.91 4.00 4.06 4.14 4.22 4.31 4.39 4.48 4.51 4.52 4.74 4.86 4.98 5.12 5.25 5.40 5.55 5.72 5.86 5.93 6.83 6.87 6.81 6.79 7.20 7.25 7.24 7.25 7.53 8.73 8.78 8.76 8.75 8.78 8.77 8.75 8.75 8.73 8.72 8.68 8.68 10.88 10.87 10.86 10.86 10.86 10.85 10.85 10.85 10.86 11.00 10.96 8.78 8.66 8.67 8.69 8.74 8.77 8.77 8.78 8.74 8.68 8.69 7.29 7.14 7.14 7.12 6.74 6.69 6.69 5.80 5.65 5.36 5.12 4.89 4.70 4.34 4.31 4.30 4.13 3.97 3.85 3.72 3.60 3.51 3.41 3.30 3.21 2.95 2.94 2.92 2.85 2.80 2.75 2.69 2.63 2.58 2.52 2.47 2.42 2.37 2.32 2.28 2.24 2.20 2.17 2.13 2.09 2.06 2.03 2.00 1.97 1.94 1.70 1.54 1.50 1.48 1.46 1.44 1.42 1.41 1.39 1.37 1.36 1.36 1.35 1.36 1.36 1.39 1.39 1.41 1.41 1.43 1.44 1.45 1.44 1.41 1.38 1.39 1.40 1.41 1.41 1.40 1.38 1.36 1.35 1.34 1.33 1.32 1.30 1.29 1.29 1.28 1.28 1.26 1.25 1.24 1.23 1.23 1.22 1.21 1.20 1.20 1.20 1.19 1.18 1.18 1.18 1.17 1.17 1.15 1.15 1.13 1.13 1.13 1.12 1.12 1.12 1.11 1.11 1.09 1.09 1.08 1.08 1.07 1.07 1.07 1.07 1.07 1.06 1.06 1.06 1.05 1.05 1.04 1.04 1.03 1.03 1.03 1.02 1.02 1.02 1.03 1.02 1.02 1.02 1.02 1.02 1.02 1.01 1.01 1.02 1.01 1.01 1.01 1.00 1.00 1.00 -4.487976 8.429268 2.944966 -4.527205 8.437083 2.944966 1217.920227 magnum 6.446127
FLASER 360 1.65 1.65 1.65 1.65 1.64 1.64 1.64 1.65 1.64 1.64 1.64 1.65 1.64 1.64 1.64 1.64 1.64 1.64 1.64 1.64 1.64 1.65 1.65 1.65 1.65 1.65 1.66 1.66 1.66 1.66 1.67 1.67 1.67 1.67 1.67 1.68 1.68 1.68 1.68 1.68 1.69 1.70 1.70 1.70 1.71 1.71 1.72 1.71 1.72 1.72 1.73 1.75 1.74 1.75 1.75 1.75 1.77 1.77 1.78 1.79 1.79 1.80 1.80 1.81 1.82 1.82 1.83 1.84 1.85 1.84 1.83 1.82 1.83 1.85 1.86 1.84 1.83 1.78 1.77 1.74 1.74 1.74 1.76 1.76 1.77 1.78 1.80 1.81 1.82 1.83 1.85 1.85 1.91 2.24 2.26 2.28 2.29 2.31 2.33 2.36 2.38 2.39 2.41 2.43 2.45 2.47 2.50 2.53 2.55 2.58 2.60 2.63 2.65 2.69 2.71 2.75 2.77 2.81 2.83 2.87 2.90 2.94 2.96 5.70 81.91 5.20 5.19 3.16 3.14 3.10 3.11 3.14 3.25 3.34 3.40 3.46 3.51 3.56 3.63 3.69 3.75 3.86 3.92 4.00 4.06 4.15 4.22 4.32 4.40 4.40 4.43 4.66 4.75 4.89 5.00 5.15 5.27 5.43 5.57 5.74 5.80 6.72 6.78 6.74 6.69 7.04 7.12 7.13 7.14 7.28 8.58 8.66 8.67 8.65 8.66 8.66 8.66 8.64 8.64 8.62 8.60 8.57 10.86 10.77 10.78 10.76 10.75 10.75 10.74 10.73 10.74 10.78 10.88 10.87 8.64 8.55 8.58 8.58 8.66 8.66 8.68 8.66 8.62 8.58 8.59 7.15 7.04 7.03 7.02 6.63 6.58 6.58 5.73 5.57 5.33 5.05 4.87 4.66 4.33 4.22 4.22 4.10 3.96 3.83 3.72 3.59 3.50 3.40 3.30 3.22 3.12 2.89 2.84 2.84 2.79 2.72 2.69 2.63 2.58 2.52 2.49 2.42 2.39 2.33 2.29 2.24 2.21 2.17 2.14 2.09 2.07 2.03 2.01 1.97 1.95 1.91 1.90 1.87 1.84 1.81 1.54 1.45 1.41 1.40 1.38 1.36 1.35 1.34 1.32 1.30 1.29 1.28 1.27 1.27 1.30 1.30 1.31 1.31 1.33 1.34 1.36 1.37 1.38 1.38 1.34 1.33 1.32 1.32 1.34 1.35 1.34 1.32 1.31 1.30 1.29 1.28 1.28 1.26 1.25 1.24 1.24 1.23 1.22 1.21 1.20 1.20 1.20 1.20 1.18 1.18 1.18 1.17 1.17 1.15 1.15 1.15 1.14 1.13 1.13 1.13 1.13 1.11 1.10 1.10 1.10 1.09 1.09 1.08 1.08 1.07 1.08 1.07 1.07 1.07 1.06 1.06 1.06 1.05 1.04 1.04 1.04 1.04 1.03 1.03 1.03 1.04 1.03 1.03 1.03 1.02 1.02 1.02 1.02 1.02 1.02 1.02 1.02 1.02 1.02 1.02 -4.591561 8.450155 2.955026 -4.630867 8.457574 2.955026 1218.130554 magnum 6.681017
FLASER 360 1.64 1.64 1.64 1.64 1.64 1.64 1.64 1.64 1.64 1.63 1.64 1.63 1.64 1.64 1.64 1.64 1.63 1.64 1.64 1.63 1.64 1.63 1.64 1.64 1.64 1.64 1.64 1.64 1.65 1.65 1.65 1.66 1.66 1.66 1.67 1.67 1.67 1.67 1.68 1.68 1.69 1.69 1.70 1.70 1.70 1.70 1.70 1.72 1.71 1.72 1.73 1.74 1.74 1.74 1.75 1.75 1.76 1.77 1.77 1.78 1.79 1.80 1.79 1.76 1.77 1.77 1.79 1.80 1.79 1.75 1.73 1.69 1.67 1.67 1.67 1.68 1.70 1.71 1.72 1.73 1.74 1.75 1.76 1.76 1.78 1.81 1.88 2.15 2.17 2.19 2.21 2.22 2.24 2.25 2.27 2.29 2.30 2.33 2.35 2.38 2.39 2.40 2.42 2.45 2.47 2.50 2.52 2.55 2.58 2.60 2.62 2.66 2.68 2.71 2.75 2.78 2.81 2.84 2.86 6.41 5.65 81.91 5.21 5.09 3.06 3.02 3.01 3.02 3.05 3.20 3.25 3.31 3.35 3.42 3.46 3.53 3.58 3.64 3.70 3.80 3.86 3.94 4.01 4.09 4.17 4.25 4.31 4.29 4.38 4.58 4.68 4.81 4.91 5.04 5.19 5.34 5.48 5.64 5.69 6.64 6.66 6.65 6.58 6.84 7.01 7.03 7.03 7.10 7.51 8.54 8.56 8.55 8.54 8.57 8.55 8.55 8.54 8.53 8.52 8.46 8.47 10.66 10.67 10.64 10.65 10.62 10.63 10.64 10.63 10.64 10.74 10.75 8.59 8.46 8.44 8.49 8.51 8.56 8.57 8.58 8.58 8.48 8.48 7.13 7.03 6.93 6.94 6.88 6.52 6.48 6.48 5.61 5.50 5.23 5.00 4.78 4.62 4.37 4.13 4.12 4.09 3.92 3.80 3.67 3.57 3.47 3.38 3.29 3.21 3.12 3.05 2.83 2.75 2.75 2.73 2.65 2.62 2.58 2.52 2.46 2.42 2.38 2.33 2.29 2.25 2.21 2.17 2.14 2.10 2.07 2.03 2.01 1.98 1.95 1.92 1.90 1.87 1.84 1.82 1.80 1.78 1.75 1.74 1.71 1.48 1.37 1.34 1.33 1.31 1.30 1.28 1.27 1.26 1.24 1.23 1.22 1.20 1.20 1.21 1.20 1.22 1.22 1.24 1.25 1.26 1.28 1.30 1.31 1.32 1.31 1.27 1.27 1.26 1.25 1.29 1.28 1.28 1.27 1.26 1.25 1.24 1.23 1.22 1.21 1.20 1.20 1.20 1.20 1.19 1.18 1.18 1.17 1.16 1.16 1.15 1.14 1.14 1.14 1.14 1.13 1.13 1.12 1.12 1.10 1.10 1.10 1.09 1.09 1.08 1.08 1.07 1.07 1.07 1.07 1.07 1.06 1.06 1.06 1.05 1.05 1.05 1.05 1.05 1.05 1.05 1.04 1.04 1.04 1.03 1.04 1.03 1.03 1.03 1.02 1.02 1.02 1.02 1.02 1.02 1.02 -4.677969 8.466663 2.964200 -4.717342 8.473721 2.964200 1218.340166 magnum 6.920199
FLASER 360 1.64 1.63 1.63 1.63 1.63 1.63 1.63 1.63 1.62 1.61 1.62 1.63 1.63 1.63 1.63 1.63 1.63 1.63 1.63 1.63 1.63 1.63 1.63 1.64 1.64 1.64 1.64 1.64 1.64 1.65 1.65 1.65 1.66 1.66 1.66 1.66 1.67 1.67 1.67 1.67 1.68 1.68 1.68 1.70 1.70 1.70 1.70 1.71 1.72 1.72 1.73 1.74 1.74 1.75 1.75 1.71 1.70 1.72 1.71 1.75 1.75 1.70 1.69 1.64 1.63 1.61 1.62 1.62 1.63 1.64 1.65 1.65 1.65 1.67 1.67 1.68 1.70 1.71 1.72 1.85 2.06 2.08 2.10 2.11 2.13 2.15 2.15 2.17 2.18 2.20 2.22 2.23 2.25 2.27 2.28 2.30 2.32 2.35 2.37 2.38 2.40 2.42 2.44 2.47 2.49 2.52 2.55 2.58 2.60 2.63 2.66 2.69 2.71 2.75 2.77 5.13 5.13 5.56 5.50 5.12 3.00 2.95 2.94 2.91 2.93 2.99 3.11 3.17 3.21 3.26 3.31 3.37 3.42 3.48 3.53 3.60 3.65 3.72 3.80 3.89 3.94 4.03 4.10 4.18 4.20 4.20 4.35 4.49 4.60 4.72 4.82 4.96 5.06 5.24 5.36 5.54 5.58 6.56 6.55 6.55 6.48 6.54 6.89 6.92 6.92 6.92 7.18 8.42 8.46 8.44 8.44 8.47 8.47 8.43 8.44 8.42 8.43 8.36 8.36 10.61 10.55 10.53 10.54 10.52 10.52 10.52 10.54 10.52 10.55 10.68 10.66 8.46 8.35 8.33 8.39 8.43 8.47 8.46 8.49 8.44 8.36 8.36 7.03 6.86 6.83 6.83 6.79 6.38 6.38 6.37 5.53 5.40 5.19 4.93 4.77 4.56 4.41 4.05 4.02 4.01 3.92 3.75 3.66 3.55 3.46 3.36 3.28 3.19 3.12 3.03 2.96 2.88 2.68 2.66 2.66 2.60 2.55 2.51 2.47 2.42 2.38 2.33 2.29 2.25 2.22 2.17 2.15 2.10 2.08 2.04 2.01 1.98 1.96 1.93 1.90 1.88 1.85 1.83 1.81 1.78 1.76 1.74 1.72 1.70 1.68 1.66 1.64 1.63 1.57 1.40 1.29 1.27 1.26 1.24 1.22 1.21 1.20 1.20 1.19 1.18 1.17 1.16 1.15 1.14 1.13 1.13 1.15 1.15 1.18 1.18 1.20 1.20 1.22 1.23 1.25 1.25 1.22 1.21 1.21 1.21 1.20 1.21 1.22 1.23 1.21 1.20 1.20 1.20 1.19 1.18 1.18 1.17 1.17 1.16 1.15 1.15 1.14 1.14 1.14 1.14 1.13 1.12 1.12 1.11 1.11 1.10 1.10 1.10 1.09 1.08 1.08 1.07 1.07 1.07 1.07 1.07 1.06 1.06 1.06 1.06 1.06 1.06 1.06 1.05 1.04 1.05 1.05 1.04 1.04 1.04 1.03 1.03 1.03 1.03 1.03 1.03 1.03 1.02 1.03 1.02 -4.808700 8.490420 2.981812 -4.848191 8.496784 2.981812 1218.550600 magnum 7.047262
FLASER 360 1.63 1.62 1.62 1.63 1.62 1.62 1.62 1.62 1.61 1.62 1.62 1.62 1.62 1.63 1.63 1.63 1.63 1.63 1.63 1.63 1.64 1.63 1.63 1.63 1.64 1.64 1.63 1.64 1.64 1.65 1.65 1.64 1.65 1.65 1.66 1.66 1.66 1.66 1.67 1.68 1.68 1.68 1.69 1.69 1.69 1.69 1.68 1.65 1.66 1.66 1.67 1.69 1.68 1.63 1.62 1.56 1.56 1.55 1.56 1.57 1.58 1.58 1.60 1.60 1.61 1.61 1.62 1.63 1.64 1.65 1.65 1.76 1.93 2.00 2.01 2.02 2.03 2.05 2.06 2.07 2.08 2.10 2.12 2.13 2.15 2.16 2.17 2.19 2.21 2.22 2.24 2.26 2.28 2.30 2.31 2.34 2.36 2.38 2.38 2.42 2.43 2.46 2.47 2.51 2.54 2.57 2.59 2.62 2.64 2.67 2.69 9.67 5.07 6.24 5.50 81.91 2.89 2.85 2.83 2.81 2.84 2.93 3.02 3.06 3.11 3.15 3.20 3.26 3.30 3.35 3.41 3.47 3.51 3.58 3.63 3.71 3.79 3.86 3.92 4.00 4.07 4.09 4.10 4.30 4.37 4.49 4.58 4.71 4.80 4.94 5.06 5.22 5.36 5.45 5.56 6.40 6.45 6.38 6.37 6.73 6.79 6.82 6.82 6.85 7.23 8.31 8.36 8.34 8.33 8.35 8.33 8.33 8.32 8.30 8.31 8.26 8.26 10.50 10.45 10.43 10.43 10.40 10.42 10.41 10.43 10.39 10.44 10.54 10.54 8.34 8.24 8.23 8.25 8.26 8.29 8.27 8.30 8.28 8.27 8.26 8.26 6.82 6.72 6.72 6.70 6.34 6.27 6.26 5.74 5.35 5.25 4.96 4.79 4.59 4.44 4.25 3.96 3.91 3.92 3.79 3.68 3.57 3.48 3.38 3.29 3.21 3.14 3.06 3.00 2.91 2.87 2.78 2.59 2.54 2.55 2.52 2.46 2.42 2.40 2.34 2.31 2.26 2.23 2.19 2.16 2.12 2.09 2.06 2.03 1.99 1.97 1.94 1.91 1.89 1.86 1.83 1.82 1.79 1.77 1.74 1.74 1.71 1.69 1.67 1.65 1.63 1.62 1.60 1.59 1.58 1.56 1.54 1.52 1.51 1.27 1.21 1.20 1.18 1.17 1.16 1.15 1.14 1.14 1.13 1.13 1.11 1.11 1.10 1.08 1.07 1.08 1.07 1.08 1.07 1.10 1.10 1.13 1.13 1.16 1.16 1.19 1.20 1.20 1.18 1.16 1.15 1.15 1.14 1.17 1.18 1.17 1.17 1.17 1.16 1.15 1.15 1.14 1.14 1.14 1.13 1.13 1.11 1.12 1.11 1.11 1.11 1.10 1.10 1.09 1.09 1.08 1.08 1.08 1.08 1.08 1.07 1.07 1.07 1.06 1.06 1.05 1.06 1.06 1.06 1.05 1.05 1.05 1.05 1.05 1.04 1.04 1.04 1.04 1.04 1.04 1.03 1.03 1.03 1.03 1.02 -4.910570 8.507108 2.997400 -4.950155 8.512855 2.997400 1218.770597 magnum 7.269229
FLASER 360 1.61 1.62 1.62 1.61 1.61 1.61 1.62 1.61 1.61 1.62 1.62 1.62 1.62 1.62 1.62 1.62 1.63 1.63 1.63 1.62 1.63 1.64 1.63 1.63 1.63 1.63 1.63 1.63 1.64 1.64 1.64 1.65 1.65 1.66 1.66 1.66 1.66 1.62 1.63 1.63 1.64 1.65 1.66 1.63 1.61 1.54 1.53 1.50 1.51 1.51 1.52 1.52 1.53 1.53 1.54 1.55 1.56 1.56 1.57 1.58 1.58 1.59 1.60 1.79 1.91 1.94 1.95 1.96 1.96 1.98 1.98 2.00 2.01 2.01 2.02 2.04 2.05 2.07 2.07 2.09 2.10 2.13 2.14 2.15 2.16 2.18 2.20 2.22 2.23 2.25 2.27 2.29 2.30 2.33 2.35 2.37 2.38 2.40 2.42 2.45 2.47 2.50 2.53 2.56 2.58 2.60 7.08 9.48 9.48 7.32 6.20 2.81 2.79 2.74 2.74 2.73 2.76 2.89 2.93 2.96 3.01 3.05 3.09 3.15 3.19 3.25 3.30 3.34 3.39 3.46 3.50 3.56 3.63 3.69 3.75 3.84 3.90 3.99 3.99 4.01 4.14 4.27 4.36 4.47 4.56 4.69 4.80 4.93 5.03 5.22 5.34 5.38 6.38 6.27 6.34 6.27 6.27 6.66 6.71 6.70 6.71 6.84 8.09 8.22 8.24 8.23 8.23 8.23 8.22 8.22 8.22 8.20 8.19 8.15 8.15 10.38 10.34 10.32 10.32 10.30 10.31 10.31 10.32 10.29 10.32 10.43 10.42 8.23 8.14 8.13 8.16 8.16 8.17 8.17 8.17 8.17 8.17 8.15 8.16 6.81 6.62 6.61 6.62 6.38 6.16 6.16 6.15 5.32 5.21 4.99 4.82 4.61 4.46 4.28 4.14 3.84 3.81 3.81 3.72 3.58 3.49 3.40 3.30 3.22 3.15 3.07 3.01 2.93 2.88 2.81 2.75 2.69 2.50 2.45 2.46 2.43 2.38 2.33 2.31 2.27 2.24 2.20 2.17 2.13 2.10 2.07 2.04 2.01 1.98 1.95 1.92 1.90 1.88 1.84 1.83 1.80 1.79 1.76 1.74 1.72 1.71 1.69 1.66 1.64 1.63 1.61 1.60 1.58 1.57 1.55 1.53 1.52 1.51 1.50 1.48 1.46 1.44 1.44 1.42 1.41 1.18 1.14 1.13 1.12 1.11 1.10 1.09 1.09 1.08 1.08 1.07 1.06 1.05 1.04 1.03 1.03 1.02 1.01 1.01 1.01 1.01 1.01 1.04 1.05 1.07 1.08 1.12 1.13 1.16 1.15 1.13 1.12 1.11 1.11 1.10 1.10 1.14 1.14 1.13 1.13 1.13 1.13 1.12 1.12 1.11 1.10 1.09 1.08 1.08 1.08 1.08 1.07 1.07 1.07 1.08 1.08 1.08 1.07 1.06 1.06 1.06 1.06 1.05 1.05 1.05 1.05 1.05 1.05 1.05 1.05 1.04 1.04 1.04 1.04 1.04 1.04 1.03 1.04 1.03 1.03 -5.000832 8.520414 3.008708 -5.040479 8.525714 3.008708 1218.980183 magnum 7.500354
FLASER 360 1.62 1.61 1.67 1.61 1.61 1.60 1.61 1.61 1.61 1.62 1.62 1.62 1.62 1.61 1.61 1.62 1.62 1.62 1.62 1.62 1.63 1.63 1.63 1.64 1.64 1.64 1.65 1.64 1.64 1.60 1.60 1.61 1.61 1.63 1.63 1.55 1.53 1.47 1.46 1.47 1.46 1.47 1.47 1.48 1.49 1.49 1.50 1.51 1.52 1.52 1.52 1.54 1.55 1.54 1.56 1.79 1.86 1.88 1.89 1.90 1.90 1.90 1.92 1.93 1.94 1.95 1.96 1.97 1.98 1.99 2.00 2.01 2.01 2.03 2.04 2.06 2.07 2.08 2.10 2.12 2.13 2.15 2.16 2.18 2.19 2.21 2.22 2.24 2.26 2.28 2.30 2.32 2.34 2.36 2.37 2.39 2.42 2.44 2.46 2.50 2.51 4.35 81.91 6.98 9.64 9.72 9.54 2.72 2.70 2.65 2.66 2.65 2.68 2.81 2.84 2.88 2.91 2.95 3.00 3.04 3.09 3.12 3.18 3.23 3.27 3.34 3.37 3.44 3.47 3.55 3.60 3.66 3.72 3.82 3.89 3.89 3.90 4.06 4.16 4.25 4.33 4.45 4.54 4.66 4.76 4.89 4.99 5.18 5.24 5.41 6.24 6.23 6.24 6.16 6.19 6.56 6.62 6.60 6.61 6.77 8.01 8.11 8.14 8.12 8.12 8.14 8.13 8.11 8.10 8.09 8.09 8.05 8.04 10.29 10.24 10.21 10.21 10.21 10.19 10.19 10.21 10.17 10.20 10.32 10.33 8.14 8.06 8.02 8.05 8.05 8.08 8.09 8.10 8.11 8.09 8.04 8.05 6.72 6.58 6.50 6.52 6.48 6.16 6.05 6.08 6.03 5.22 5.06 4.88 4.67 4.52 4.34 4.20 4.05 3.76 3.70 3.69 3.63 3.52 3.42 3.35 3.25 3.18 3.09 3.03 2.96 2.91 2.83 2.78 2.71 2.67 2.61 2.44 2.37 2.35 2.35 2.32 2.27 2.25 2.21 2.18 2.15 2.11 2.08 2.05 2.02 2.00 1.97 1.94 1.91 1.89 1.86 1.84 1.81 1.79 1.77 1.75 1.73 1.71 1.69 1.67 1.65 1.64 1.62 1.61 1.59 1.58 1.56 1.54 1.53 1.52 1.50 1.49 1.47 1.46 1.45 1.44 1.42 1.41 1.40 1.39 1.38 1.36 1.36 1.35 1.34 1.21 1.12 1.08 1.07 1.06 1.06 1.05 1.04 1.04 1.03 1.02 1.01 1.02 1.00 1.00 0.99 0.99 0.98 0.98 0.98 0.97 0.97 0.96 0.96 0.99 0.99 1.02 1.03 1.06 1.06 1.11 1.10 1.10 1.09 1.08 1.07 1.07 1.07 1.08 1.09 1.10 1.10 1.09 1.09 1.09 1.07 1.07 1.07 1.07 1.08 1.07 1.07 1.07 1.06 1.07 1.06 1.06 1.05 1.06 1.05 1.05 1.05 1.04 1.04 1.04 1.04 1.04 1.04 1.04 1.04 1.03 1.03 1.03 1.03 -5.117460 8.536149 3.025442 -5.157191 8.540785 3.025442 1219.200196 magnum 7.744400
FLASER 360 1.61 1.60 1.60 1.60 1.61 1.60 1.60 1.61 1.62 1.61 1.61 1.61 1.61 1.62 1.61 1.62 1.62 1.62 1.62 1.57 1.58 1.58 1.58 1.60 1.60 1.55 1.52 1.44 1.44 1.44 1.44 1.45 1.45 1.45 1.46 1.47 1.47 1.47 1.47 1.48 1.48 1.48 1.49 1.49 1.50 1.61 1.66 1.81 1.82 1.82 1.83 1.84 1.85 1.85 1.87 1.88 1.88 1.89 1.90 1.91 1.91 1.93 1.94 1.95 1.96 1.97 1.97 1.99 1.99 2.01 2.01 2.03 2.04 2.06 2.07 2.08 2.09 2.11 2.13 2.15 2.16 2.17 2.18 2.21 2.22 2.23 2.25 2.28 2.30 2.31 2.32 2.35 2.37 2.39 2.42 2.43 9.50 81.91 81.91 7.07 6.89 9.57 81.91 2.61 2.58 2.55 2.56 2.59 2.64 2.74 2.77 2.80 2.83 2.87 2.91 2.95 2.99 3.03 3.08 3.12 3.17 3.22 3.26 3.32 3.37 3.43 3.47 3.55 3.59 3.66 3.71 3.79 3.79 3.82 3.97 4.08 4.15 4.24 4.33 4.44 4.53 4.65 4.75 4.88 5.00 5.13 5.19 6.18 6.10 6.13 6.07 6.05 6.36 6.48 6.51 6.49 6.51 6.79 7.95 8.03 8.03 8.02 8.01 8.02 8.01 8.00 8.01 7.99 7.98 7.94 7.95 10.16 10.12 10.10 10.10 10.09 10.09 10.08 10.10 10.06 10.09 10.20 10.19 10.26 7.97 7.90 7.94 7.94 7.96 7.98 7.98 8.00 7.99 7.94 7.94 7.94 6.57 6.40 6.42 6.40 6.29 5.95 5.96 5.94 5.21 4.99 4.90 4.67 4.53 4.35 4.21 4.06 3.94 3.64 3.60 3.58 3.56 3.43 3.35 3.26 3.19 3.10 3.03 2.97 2.90 2.83 2.79 2.73 2.67 2.60 2.57 2.51 2.41 2.29 2.26 2.27 2.25 2.19 2.18 2.15 2.11 2.09 2.05 2.02 2.00 1.97 1.94 1.91 1.90 1.86 1.84 1.82 1.80 1.77 1.76 1.74 1.72 1.70 1.68 1.66 1.64 1.62 1.61 1.60 1.58 1.56 1.55 1.53 1.52 1.51 1.50 1.48 1.47 1.45 1.45 1.42 1.41 1.40 1.39 1.38 1.37 1.36 1.35 1.34 1.33 1.32 1.31 1.30 1.30 1.30 1.29 1.28 1.26 1.25 1.08 1.03 1.01 1.00 1.00 1.00 0.99 0.99 0.98 0.97 0.97 0.96 0.96 0.95 0.95 0.95 0.95 0.95 0.94 0.94 0.94 0.93 0.93 0.92 0.93 0.92 0.94 0.96 1.00 1.00 1.05 1.06 1.07 1.06 1.04 1.04 1.04 1.04 1.04 1.04 1.08 1.07 1.07 1.06 1.07 1.07 1.06 1.06 1.06 1.05 1.05 1.05 1.05 1.05 1.05 1.04 1.04 1.04 1.04 1.04 1.04 1.04 1.04 1.04 1.03 1.03 -5.227663 8.549445 3.040225 -5.267457 8.553493 3.040225 1219.410596 magnum 7.981436
FLASER 360 1.59 1.60 1.60 1.61 1.60 1.61 1.61 1.61 1.61 1.57 1.57 1.57 1.57 1.57 1.58 1.55 1.52 1.43 1.42 1.42 1.42 1.43 1.43 1.43 1.43 1.43 1.44 1.44 1.44 1.44 1.46 1.45 1.46 1.47 1.47 1.53 1.56 1.65 1.67 1.78 1.78 1.79 1.79 1.80 1.80 1.81 1.82 1.83 1.83 1.83 1.84 1.85 1.86 1.87 1.88 1.89 1.90 1.90 1.91 1.92 1.93 1.94 1.95 1.97 1.97 1.98 2.00 2.01 2.02 2.03 2.03 2.05 2.06 2.08 2.09 2.11 2.12 2.14 2.16 2.17 2.18 2.20 2.22 2.23 2.25 2.27 2.29 2.31 2.32 2.35 2.36 5.01 5.01 4.22 81.91 9.25 9.21 2.55 2.54 2.50 2.47 2.46 2.49 2.55 2.62 2.66 2.70 2.73 2.77 2.80 2.84 2.87 2.90 2.95 2.99 3.03 3.06 3.11 3.16 3.21 3.26 3.31 3.36 3.42 3.46 3.51 3.57 3.65 3.69 3.67 3.71 3.90 3.96 4.06 4.13 4.23 4.30 4.41 4.51 4.62 4.73 4.86 4.99 5.04 5.22 6.03 5.98 5.97 5.96 5.97 6.34 6.40 6.41 6.39 6.41 6.88 7.85 7.92 7.93 7.91 7.91 7.91 7.91 7.91 7.91 7.88 7.88 7.84 7.83 10.06 10.01 9.99 9.98 9.97 9.97 9.96 9.99 9.95 9.97 10.06 10.11 10.12 7.93 7.80 7.83 7.84 7.85 7.84 7.85 7.86 7.88 7.84 7.84 7.83 6.71 6.31 6.30 6.31 6.27 5.91 5.84 5.84 5.83 4.99 4.88 4.72 4.56 4.37 4.25 4.08 3.98 3.83 3.60 3.49 3.50 3.46 3.37 3.28 3.21 3.11 3.06 2.98 2.93 2.85 2.80 2.73 2.69 2.62 2.58 2.52 2.49 2.43 2.38 2.24 2.19 2.16 2.17 2.16 2.10 2.08 2.06 2.03 2.01 1.97 1.95 1.91 1.90 1.87 1.84 1.82 1.80 1.78 1.76 1.74 1.73 1.70 1.69 1.66 1.65 1.63 1.62 1.60 1.59 1.57 1.56 1.54 1.53 1.51 1.50 1.48 1.47 1.46 1.45 1.44 1.42 1.41 1.40 1.38 1.37 1.37 1.35 1.34 1.33 1.32 1.31 1.31 1.30 1.30 1.29 1.28 1.27 1.26 1.25 1.24 1.23 1.23 1.22 1.21 1.21 1.20 1.20 1.19 1.10 1.05 0.97 0.96 0.95 0.95 0.95 0.95 0.94 0.94 0.93 0.93 0.93 0.92 0.92 0.91 0.91 0.91 0.91 0.90 0.90 0.90 0.90 0.89 0.89 0.89 0.89 0.89 0.89 0.90 0.96 0.96 1.04 1.04 1.05 1.04 1.02 1.02 1.02 1.02 1.02 1.02 1.05 1.04 1.04 1.04 1.05 1.04 1.04 1.04 1.04 1.04 1.04 1.04 1.04 1.03 1.04 1.03 -5.312457 8.558338 3.051643 -5.352296 8.561931 3.051643 1219.620207 magnum 8.116002
FLASER 360 1.58 1.56 1.56 1.57 1.56 1.58 1.57 1.41 1.40 1.40 1.40 1.41 1.41 1.41 1.41 1.41 1.41 1.42 1.42 1.42 1.42 1.43 1.43 1.43 1.43 1.44 1.46 1.61 1.62 1.65 1.68 1.75 1.76 1.76 1.76 1.76 1.77 1.77 1.78 1.78 1.79 1.79 1.80 1.81 1.81 1.82 1.83 1.84 1.84 1.85 1.86 1.86 1.87 1.88 1.89 1.90 1.91 1.91 1.92 1.94 1.95 1.96 1.97 1.98 1.99 2.00 2.00 2.02 2.02 2.04 2.06 2.07 2.08 2.09 2.11 2.13 2.15 2.16 2.17 2.19 2.20 2.23 2.24 2.25 2.27 3.97 4.39 5.04 4.95 4.93 9.43 9.39 9.29 2.46 2.43 2.39 2.38 2.39 2.42 2.52 2.55 2.58 2.61 2.64 2.68 2.71 2.74 2.78 2.80 2.84 2.87 2.92 2.95 2.99 3.04 3.08 3.12 3.17 3.22 3.27 3.32 3.37 3.42 3.48 3.53 3.59 3.58 3.59 3.69 3.83 3.90 3.99 4.06 4.16 4.24 4.34 4.43 4.54 4.63 4.76 4.89 4.93 5.12 5.95 5.87 5.87 5.86 5.85 6.18 6.27 6.31 6.28 6.30 6.48 7.67 7.80 7.82 7.81 7.82 7.83 7.81 7.81 7.81 7.79 7.78 7.76 7.72 7.71 9.94 9.89 9.89 9.87 9.87 9.86 9.85 9.87 9.86 9.87 9.97 9.98 10.02 7.75 7.70 7.73 7.74 7.74 7.74 7.74 7.75 7.75 7.74 7.73 7.73 6.59 6.24 6.19 6.20 6.16 5.87 5.73 5.74 5.72 5.00 4.80 4.72 4.52 4.36 4.20 4.08 3.95 3.82 3.68 3.46 3.39 3.39 3.36 3.26 3.17 3.11 3.02 2.98 2.91 2.84 2.78 2.72 2.66 2.62 2.57 2.52 2.47 2.42 2.38 2.34 2.29 2.21 2.10 2.08 2.07 2.07 2.04 2.00 1.99 1.96 1.93 1.92 1.89 1.86 1.84 1.82 1.79 1.77 1.76 1.74 1.72 1.70 1.68 1.66 1.65 1.63 1.61 1.60 1.58 1.56 1.54 1.54 1.52 1.51 1.49 1.48 1.47 1.45 1.45 1.43 1.42 1.41 1.39 1.38 1.37 1.36 1.35 1.34 1.33 1.32 1.31 1.31 1.30 1.29 1.28 1.27 1.27 1.26 1.25 1.24 1.23 1.22 1.22 1.22 1.21 1.21 1.20 1.19 1.19 1.18 1.17 1.17 1.17 1.16 1.15 1.15 1.15 1.12 1.10 1.08 1.05 0.93 0.93 0.91 0.91 0.91 0.90 0.90 0.89 0.89 0.89 0.88 0.89 0.88 0.88 0.88 0.88 0.88 0.88 0.87 0.87 0.87 0.87 0.87 0.87 0.87 0.87 0.87 0.87 0.86 0.86 0.93 0.95 1.04 1.03 1.02 1.02 1.01 1.00 1.00 1.01 1.02 1.02 1.03 1.03 1.03 1.03 -5.438809 8.569629 3.052157 -5.478649 8.573201 3.052157 1219.830693 magnum 8.344866
FLASER 360 1.40 1.41 1.40 1.41 1.41 1.40 1.40 1.41 1.40 1.40 1.40 1.41 1.41 1.41 1.41 1.41 1.42 1.43 1.49 1.58 1.59 1.60 1.62 1.71 1.73 1.73 1.73 1.73 1.74 1.74 1.75 1.75 1.76 1.76 1.76 1.76 1.77 1.77 1.78 1.78 1.79 1.79 1.80 1.81 1.81 1.82 1.83 1.84 1.84 1.85 1.86 1.87 1.88 1.88 1.89 1.90 1.91 1.92 1.93 1.94 1.95 1.96 1.97 1.98 1.99 2.00 2.02 2.02 2.03 2.04 2.06 2.07 2.08 2.10 2.11 2.13 2.15 2.17 2.17 2.19 2.20 2.49 9.67 9.62 4.33 5.01 4.90 4.85 9.42 2.40 2.37 2.32 2.31 2.30 2.31 2.36 2.44 2.47 2.51 2.53 2.56 2.59 2.62 2.65 2.68 2.71 2.75 2.79 2.81 2.85 2.88 2.92 2.96 3.00 3.04 3.08 3.12 3.18 3.22 3.27 3.31 3.37 3.42 3.48 3.50 3.48 3.53 3.68 3.74 3.83 3.91 3.99 4.07 4.16 4.24 4.34 4.43 4.53 4.64 4.78 4.81 4.93 5.93 5.79 5.77 5.76 5.75 5.83 6.14 6.19 6.19 6.18 6.22 6.53 7.62 7.70 7.72 7.70 7.71 7.72 7.70 7.69 7.69 7.68 7.68 7.64 7.60 10.06 9.83 9.79 9.78 9.77 9.77 9.76 9.77 9.76 9.75 9.76 9.85 9.87 9.91 7.68 7.58 7.60 7.62 7.61 7.62 7.62 7.64 7.64 7.62 7.61 7.61 7.60 6.19 6.07 6.10 6.08 6.02 5.63 5.62 5.62 5.61 4.78 4.67 4.54 4.36 4.21 4.08 3.95 3.82 3.68 3.58 3.37 3.29 3.28 3.27 3.19 3.10 3.03 2.97 2.90 2.84 2.78 2.73 2.67 2.61 2.57 2.52 2.47 2.42 2.38 2.34 2.29 2.25 2.22 2.18 2.11 2.00 1.97 1.98 1.98 1.95 1.92 1.90 1.88 1.85 1.84 1.82 1.79 1.77 1.76 1.73 1.72 1.69 1.67 1.66 1.65 1.63 1.61 1.59 1.58 1.56 1.54 1.54 1.52 1.51 1.49 1.48 1.45 1.45 1.43 1.43 1.41 1.40 1.38 1.37 1.37 1.36 1.35 1.34 1.33 1.31 1.31 1.31 1.30 1.28 1.28 1.27 1.26 1.25 1.24 1.24 1.23 1.22 1.22 1.21 1.21 1.20 1.20 1.19 1.18 1.18 1.17 1.17 1.16 1.16 1.15 1.15 1.15 1.15 1.14 1.14 1.13 1.13 1.12 1.12 1.11 1.10 1.10 1.09 1.09 1.04 1.04 1.04 1.04 0.93 0.91 0.88 0.88 0.87 0.87 0.87 0.87 0.87 0.87 0.87 0.87 0.86 0.86 0.86 0.86 0.86 0.86 0.86 0.86 0.86 0.86 0.86 0.86 0.86 0.86 0.85 0.86 0.85 0.85 0.86 0.86 0.95 0.96 -5.544771 8.579091 3.048704 -5.584598 8.582801 3.048704 1220.050897 magnum 8.580698
FLASER 360 1.40 1.40 1.41 1.41 1.41 1.41 1.41 1.41 1.41 1.49 1.51 1.58 1.58 1.58 1.59 1.69 1.70 1.70 1.70 1.70 1.71 1.71 1.71 1.72 1.73 1.73 1.73 1.74 1.74 1.75 1.75 1.75 1.75 1.75 1.76 1.77 1.77 1.78 1.78 1.78 1.79 1.80 1.80 1.81 1.82 1.82 1.83 1.83 1.84 1.85 1.86 1.87 1.88 1.88 1.90 1.90 1.90 1.92 1.93 1.94 1.95 1.97 1.97 1.98 1.99 2.01 2.02 2.03 2.03 2.04 2.06 2.07 2.08 2.10 2.11 2.13 2.16 2.48 9.41 9.42 9.52 9.61 4.23 4.96 4.84 4.77 2.30 2.26 2.24 2.22 2.23 2.26 2.33 2.38 2.40 2.43 2.45 2.49 2.51 2.53 2.57 2.59 2.62 2.65 2.69 2.71 2.75 2.78 2.81 2.85 2.88 2.92 2.96 3.00 3.04 3.08 3.12 3.17 3.21 3.26 3.31 3.36 3.41 3.39 3.41 3.54 3.62 3.67 3.74 3.83 3.92 3.99 4.07 4.16 4.24 4.34 4.43 4.54 4.64 4.71 4.78 5.87 5.72 5.66 5.67 5.65 5.66 6.01 6.07 6.10 6.08 6.09 6.23 7.36 7.56 7.60 7.59 7.58 7.60 7.60 7.59 7.57 7.57 7.57 7.57 7.52 7.49 9.86 9.70 9.67 9.66 9.64 9.65 9.63 9.65 9.65 9.64 9.65 9.76 9.76 9.80 7.57 7.48 7.49 7.51 7.50 7.51 7.51 7.53 7.53 7.52 7.49 7.51 7.51 6.18 5.97 5.98 5.99 5.93 5.59 5.52 5.54 5.51 4.90 4.62 4.54 4.36 4.21 4.07 3.94 3.82 3.68 3.57 3.49 3.28 3.18 3.18 3.18 3.11 3.02 2.97 2.90 2.83 2.77 2.72 2.67 2.61 2.56 2.52 2.46 2.41 2.37 2.34 2.30 2.25 2.22 2.18 2.15 2.12 2.08 2.01 1.92 1.89 1.88 1.89 1.88 1.84 1.82 1.80 1.78 1.76 1.75 1.73 1.71 1.69 1.67 1.65 1.64 1.62 1.61 1.59 1.58 1.56 1.54 1.54 1.52 1.51 1.49 1.47 1.46 1.44 1.43 1.42 1.41 1.40 1.38 1.37 1.37 1.36 1.35 1.34 1.33 1.31 1.31 1.31 1.29 1.29 1.28 1.27 1.26 1.25 1.24 1.23 1.23 1.22 1.21 1.21 1.21 1.20 1.20 1.19 1.18 1.18 1.17 1.17 1.16 1.16 1.15 1.15 1.15 1.15 1.14 1.14 1.13 1.13 1.12 1.12 1.11 1.11 1.10 1.09 1.09 1.09 1.09 1.08 1.08 1.09 1.07 1.08 1.07 1.07 1.07 1.05 1.04 1.03 1.03 1.02 1.02 1.01 1.00 0.87 0.86 0.86 0.86 0.86 0.85 0.85 0.85 0.85 0.85 0.85 0.85 0.85 0.85 0.85 0.85 0.85 0.85 0.85 0.85 -5.633963 8.587369 3.047170 -5.673784 8.591140 3.047170 1220.260554 magnum 8.809338
FLASER 360 1.40 1.56 1.58 1.57 1.57 1.57 1.58 1.67 1.67 1.68 1.68 1.68 1.69 1.69 1.70 1.69 1.69 1.70 1.70 1.71 1.71 1.71 1.72 1.72 1.73 1.73 1.73 1.74 1.74 1.75 1.75 1.75 1.75 1.76 1.76 1.77 1.77 1.78 1.78 1.79 1.79 1.80 1.80 1.81 1.82 1.83 1.83 1.83 1.84 1.85 1.86 1.87 1.88 1.89 1.90 1.90 1.91 1.92 1.93 1.94 1.95 1.96 1.97 1.98 2.00 2.01 2.01 2.03 2.04 2.05 2.07 2.13 2.35 2.40 6.67 7.69 7.77 9.33 9.38 4.14 9.50 2.25 2.23 2.17 2.16 2.15 2.16 2.20 2.26 2.30 2.32 2.34 2.36 2.39 2.41 2.44 2.45 2.50 2.51 2.55 2.57 2.61 2.62 2.67 2.69 2.72 2.76 2.78 2.82 2.86 2.90 2.93 2.96 3.01 3.04 3.08 3.12 3.18 3.22 3.27 3.31 3.30 3.31 3.44 3.51 3.57 3.63 3.70 3.76 3.86 3.94 4.01 4.09 4.18 4.26 4.36 4.46 4.58 4.61 4.72 5.79 5.63 5.57 5.56 5.54 5.54 5.84 5.94 6.01 5.98 5.98 6.05 6.36 7.40 7.49 7.48 7.48 7.48 7.50 7.49 7.48 7.47 7.47 7.45 7.45 7.40 7.40 9.66 9.59 9.56 9.55 9.53 9.53 9.52 9.54 9.53 9.53 9.55 9.70 9.66 9.72 7.41 7.36 7.39 7.40 7.40 7.41 7.41 7.42 7.42 7.42 7.39 7.39 7.40 6.12 5.87 5.88 5.89 5.83 5.53 5.41 5.43 5.41 5.39 4.57 4.45 4.34 4.17 4.04 3.91 3.80 3.66 3.56 3.46 3.37 3.17 3.08 3.09 3.08 3.02 2.94 2.88 2.82 2.77 2.71 2.65 2.60 2.55 2.50 2.45 2.40 2.36 2.32 2.29 2.24 2.21 2.17 2.14 2.10 2.07 2.05 2.02 1.98 1.96 1.84 1.81 1.80 1.79 1.80 1.77 1.75 1.73 1.71 1.69 1.68 1.66 1.64 1.64 1.62 1.60 1.59 1.57 1.56 1.54 1.53 1.51 1.50 1.49 1.47 1.45 1.45 1.44 1.42 1.41 1.39 1.38 1.37 1.36 1.36 1.34 1.33 1.32 1.31 1.30 1.30 1.29 1.28 1.28 1.27 1.26 1.25 1.24 1.23 1.22 1.22 1.21 1.21 1.21 1.20 1.19 1.19 1.18 1.18 1.17 1.16 1.16 1.15 1.15 1.15 1.15 1.14 1.14 1.13 1.13 1.12 1.12 1.12 1.11 1.11 1.10 1.10 1.09 1.09 1.09 1.08 1.08 1.07 1.07 1.07 1.07 1.07 1.06 1.07 1.06 1.05 1.06 1.05 1.06 1.05 1.04 1.05 1.04 1.04 1.04 1.02 1.02 1.01 1.01 1.00 1.00 1.01 1.01 1.00 0.99 0.86 0.86 0.85 0.85 0.85 0.84 -5.742718 8.597686 3.048704 -5.782545 8.601396 3.048704 1220.480542 magnum 9.050594
FLASER 360 1.65 1.67 1.67 1.67 1.67 1.68 1.68 1.67 1.67 1.68 1.68 1.69 1.69 1.69 1.70 1.69 1.70 1.70 1.70 1.71 1.71 1.71 1.72 1.72 1.73 1.73 1.73 1.73 1.73 1.74 1.74 1.75 1.75 1.76 1.76 1.77 1.77 1.78 1.78 1.79 1.79 1.80 1.81 1.81 1.82 1.82 1.83 1.84 1.85 1.86 1.87 1.88 1.88 1.89 1.89 1.90 1.91 1.93 1.94 1.95 1.96 1.96 1.97 1.99 2.00 2.01 2.02 2.34 2.35 2.29 8.75 6.57 6.58 8.94 7.70 9.22 4.07 2.16 2.14 2.10 2.09 2.08 2.10 2.16 2.20 2.23 2.24 2.26 2.28 2.31 2.32 2.35 2.38 2.39 2.42 2.45 2.47 2.50 2.53 2.55 2.59 2.61 2.63 2.67 2.70 2.73 2.77 2.79 2.83 2.86 2.89 2.94 2.96 3.02 3.04 3.09 3.13 3.18 3.22 3.20 3.22 3.32 3.40 3.46 3.52 3.58 3.64 3.71 3.79 3.86 3.94 4.03 4.11 4.20 4.28 4.37 4.49 4.51 4.62 5.68 5.56 5.46 5.46 5.45 5.44 5.66 5.84 5.88 5.88 5.88 5.89 6.12 7.18 7.35 7.40 7.38 7.37 7.38 7.39 7.37 7.37 7.35 7.35 7.34 7.32 7.27 7.29 9.52 9.47 9.44 9.45 9.42 9.44 9.42 9.44 9.42 9.43 9.45 9.58 9.55 9.64 7.27 7.25 7.29 7.29 7.29 7.29 7.29 7.31 7.31 7.30 7.28 7.30 7.30 6.05 5.77 5.77 5.77 5.73 5.58 5.31 5.31 5.32 5.29 4.54 4.36 4.32 4.14 4.02 3.89 3.75 3.64 3.53 3.43 3.35 3.26 3.08 2.99 2.99 2.98 2.93 2.87 2.81 2.75 2.69 2.65 2.59 2.55 2.49 2.44 2.40 2.36 2.31 2.27 2.23 2.20 2.16 2.14 2.10 2.06 2.04 2.00 1.98 1.96 1.94 1.90 1.87 1.81 1.74 1.72 1.71 1.72 1.71 1.69 1.66 1.64 1.63 1.62 1.61 1.59 1.58 1.57 1.55 1.54 1.52 1.50 1.49 1.48 1.47 1.45 1.44 1.43 1.42 1.40 1.39 1.38 1.36 1.35 1.35 1.34 1.33 1.32 1.31 1.30 1.29 1.29 1.28 1.27 1.26 1.25 1.25 1.24 1.23 1.22 1.22 1.21 1.20 1.20 1.20 1.19 1.18 1.18 1.17 1.17 1.16 1.16 1.15 1.15 1.14 1.14 1.14 1.13 1.13 1.12 1.12 1.12 1.11 1.11 1.10 1.09 1.10 1.09 1.09 1.08 1.08 1.08 1.07 1.07 1.07 1.08 1.06 1.06 1.07 1.06 1.05 1.06 1.05 1.05 1.05 1.05 1.05 1.05 1.04 1.04 1.04 1.04 1.04 1.04 1.03 1.03 1.03 1.03 1.03 1.03 1.02 1.02 1.01 1.02 1.00 1.00 -5.862676 8.608801 3.047210 -5.902498 8.612570 3.047210 1220.690254 magnum 9.195912
FLASER 360 1.66 1.67 1.67 1.67 1.68 1.68 1.68 1.67 1.68 1.68 1.68 1.69 1.69 1.69 1.70 1.70 1.70 1.70 1.71 1.71 1.71 1.72 1.72 1.73 1.73 1.73 1.73 1.73 1.73 1.74 1.75 1.75 1.75 1.76 1.77 1.77 1.78 1.78 1.78 1.79 1.80 1.80 1.81 1.82 1.82 1.82 1.83 1.84 1.85 1.86 1.87 1.88 1.88 1.89 1.89 1.90 1.92 1.93 1.94 1.95 1.95 1.95 8.46 2.28 2.28 8.48 8.57 8.59 8.66 8.69 6.50 6.53 8.85 2.07 2.05 2.02 2.01 2.02 2.03 2.12 2.15 2.16 2.17 2.18 2.20 2.23 2.25 2.26 2.28 2.30 2.32 2.35 2.37 2.39 2.41 2.44 2.47 2.49 2.53 2.55 2.58 2.60 2.64 2.67 2.69 2.73 2.76 2.79 2.82 2.86 2.89 2.93 2.96 3.01 3.04 3.09 3.13 3.11 3.12 3.20 3.29 3.35 3.40 3.47 3.52 3.58 3.65 3.71 3.79 3.86 3.94 4.02 4.10 4.18 4.28 4.38 4.41 4.49 5.64 5.50 5.37 5.41 5.37 5.33 5.36 5.70 5.74 5.79 5.78 5.77 5.86 6.23 7.17 7.25 7.28 7.28 7.27 7.28 7.27 7.27 7.27 7.25 7.25 7.23 7.21 7.16 9.97 9.42 9.37 9.35 9.34 9.34 9.33 9.32 9.34 9.32 9.31 9.34 9.46 9.43 9.49 7.22 7.14 7.16 7.18 7.18 7.20 7.20 7.22 7.21 7.22 7.17 7.19 7.19 6.16 5.74 5.66 5.66 5.67 5.60 5.27 5.19 5.23 5.20 5.19 4.38 4.25 4.19 4.03 3.91 3.76 3.65 3.54 3.45 3.36 3.26 3.18 3.11 2.91 2.88 2.88 2.86 2.81 2.74 2.69 2.64 2.58 2.55 2.49 2.45 2.40 2.35 2.31 2.28 2.23 2.20 2.16 2.13 2.10 2.07 2.04 2.01 1.98 1.95 1.92 1.90 1.87 1.86 1.82 1.80 1.78 1.75 1.65 1.62 1.62 1.62 1.63 1.63 1.60 1.58 1.56 1.55 1.53 1.52 1.52 1.50 1.49 1.48 1.46 1.45 1.44 1.43 1.42 1.40 1.38 1.37 1.36 1.35 1.35 1.34 1.33 1.32 1.31 1.30 1.29 1.28 1.28 1.27 1.26 1.25 1.24 1.24 1.23 1.22 1.21 1.21 1.20 1.20 1.19 1.19 1.18 1.17 1.17 1.16 1.16 1.15 1.15 1.14 1.14 1.13 1.13 1.13 1.13 1.12 1.12 1.11 1.11 1.10 1.10 1.10 1.09 1.09 1.08 1.07 1.08 1.07 1.08 1.08 1.08 1.07 1.06 1.05 1.05 1.06 1.06 1.05 1.05 1.05 1.05 1.05 1.04 1.04 1.04 1.04 1.04 1.03 1.03 1.03 1.03 1.03 1.03 1.03 1.03 1.03 1.03 1.03 1.03 1.02 1.03 1.02 -5.950869 8.617003 3.040671 -5.990666 8.621033 3.040671 1220.901177 magnum 9.521403
FLASER 360 1.64 1.67 1.67 1.67 1.68 1.68 1.68 1.68 1.69 1.68 1.68 1.69 1.69 1.69 1.70 1.69 1.70 1.70 1.70 1.71 1.71 1.72 1.72 1.72 1.73 1.73 1.73 1.73 1.73 1.74 1.74 1.75 1.75 1.76 1.76 1.77 1.77 1.78 1.78 1.79 1.79 1.80 1.81 1.81 1.81 1.82 1.83 1.83 1.84 1.85 1.87 1.87 1.88 1.88 1.89 1.90 1.91 6.05 6.02 2.23 2.23 4.25 4.25 7.05 8.40 8.44 8.52 8.56 8.59 2.01 1.98 1.94 1.95 1.95 1.97 2.05 2.07 2.07 2.09 2.12 2.13 2.15 2.16 2.18 2.20 2.21 2.23 2.25 2.27 2.29 2.31 2.34 2.37 2.38 2.40 2.43 2.45 2.47 2.50 2.53 2.56 2.58 2.61 2.64 2.67 2.69 2.73 2.76 2.80 2.83 2.86 2.90 2.94 2.97 3.01 3.03 3.02 3.04 3.12 3.20 3.25 3.30 3.36 3.41 3.47 3.53 3.59 3.66 3.71 3.80 3.88 3.96 4.03 4.12 4.21 4.30 4.31 4.48 5.55 5.41 5.28 5.25 5.26 5.23 5.25 5.59 5.64 5.69 5.68 5.66 5.70 5.92 6.93 7.12 7.19 7.17 7.17 7.16 7.18 7.17 7.16 7.14 7.14 7.12 7.12 7.08 7.06 9.47 9.29 9.26 9.24 9.23 9.23 9.21 9.22 9.23 9.21 9.20 9.25 9.35 9.34 9.41 7.08 7.02 7.07 7.07 7.08 7.08 7.09 7.09 7.10 7.09 7.08 7.07 7.09 7.04 5.65 5.54 5.55 5.56 5.51 5.26 5.10 5.11 5.10 5.05 4.47 4.20 4.13 4.01 3.89 3.74 3.63 3.52 3.43 3.33 3.25 3.16 3.08 3.01 2.84 2.77 2.78 2.77 2.74 2.67 2.62 2.57 2.53 2.46 2.43 2.39 2.35 2.31 2.26 2.22 2.19 2.15 2.13 2.08 2.05 2.02 2.00 1.99 1.95 1.93 1.89 1.87 1.85 1.82 1.79 1.78 1.77 1.74 1.71 1.71 1.68 1.60 1.56 1.54 1.54 1.54 1.55 1.53 1.50 1.50 1.49 1.47 1.46 1.45 1.44 1.43 1.42 1.40 1.40 1.38 1.37 1.35 1.35 1.34 1.33 1.32 1.31 1.30 1.29 1.28 1.28 1.28 1.27 1.26 1.25 1.24 1.23 1.22 1.22 1.21 1.20 1.20 1.20 1.19 1.18 1.18 1.18 1.17 1.16 1.16 1.15 1.15 1.14 1.13 1.13 1.13 1.13 1.12 1.12 1.11 1.11 1.10 1.10 1.09 1.09 1.09 1.08 1.08 1.07 1.08 1.06 1.06 1.06 1.06 1.07 1.06 1.06 1.06 1.05 1.05 1.05 1.05 1.04 1.05 1.04 1.04 1.04 1.04 1.04 1.04 1.03 1.03 1.03 1.03 1.03 1.03 1.03 1.02 1.03 1.02 1.02 1.02 1.02 1.02 -6.049257 8.626913 3.033808 -6.089025 8.631216 3.033808 1221.120575 magnum 9.631716
